SOLD DATE,ADDRESS,ZIP OR POSTAL CODE,PRICE,BEDS,BATHS,LOCATION,SQUARE FEET,LOT SIZE,YEAR BUILT,DAYS ON MARKET,$/SQUARE FEET,HOA/MONTH,LATITUDE,LONGITUDE
May-6-2020,8415 SE Schwind Cir,98664,699999,1,1,VANCOUVER: THE HEIGHTS (SW),100,15245,1960,106,7000,0,45.60192414,-122.5909825
April-15-2020,7607 SE Harney St,97206,229500,1,1,BRENTWOOD,504,5662,1949,127,455,0,45.463471,-122.585376
June-12-2020,7220 NE 33rd Dr,97211,265000,2,1,PORTLAND NORTHEAST,572,11761,1944,69,463,0,45.5754599,-122.6329566
May-27-2020,6804 SE 77th Ave,97206,250000,1,1,BRENTWOOD,577,5662,1927,85,433,0,45.4733822,-122.5837302
February-28-2020,3134 NE 76th Ave,97213,234600,1,1,ROSEWAY,600,4791,1914,174,391,0,45.5451345,-122.5846647
July-15-2020,6827 N Hudson St,97203,350000,2,1,ST JOHNS,603,4791,1927,36,580,0,45.589185,-122.7353869
July-30-2020,5036 SE Bybee Blvd,97206,235000,2,1,BRENTWOOD,604,4791,1924,21,389,0,45.4724245,-122.6112084
June-11-2020,6012 SE Bush St,97206,324900,2,1,FOSTER,624,4791,1949,70,521,0,45.4950056,-122.6013366
August-14-2020,10153 N Barr Ave,97203,325000,1,1,PORTLAND NORTH,640,4791,1907,6,508,0,45.599792,-122.749065
June-30-2020,7714 SE 65th Ave,97206,305000,2,1,PORTLAND SOUTHEAST,650,4791,1946,51,469,0,45.4678217,-122.5966355
July-24-2020,3807 SE 56th Ave,97206,325000,2,1,FOSTER,660,3920,1947,27,492,0,45.4953036,-122.6055404
August-5-2020,8817 N Dwight Ave,97203,375000,2,1,PORTSMOUTH,681,3484,1951,15,551,0,45.5862759,-122.7147397
June-22-2020,2726 SE 60th Ave,97206,425000,2,1,SOUTH TABOR,698,4356,1954,59,609,0,45.5029611,-122.6009487
May-27-2020,9234 N Allegheny Ave,97203,345000,2,1,ST JOHNS,704,4791,1954,85,490,0,45.5933162,-122.7449869
March-11-2020,7505 SE Carlton St,97206,315000,2,1,PORTLAND SOUTHEAST,704,4791,1951,162,447,0,45.4784091,-122.5857808
February-27-2020,9525 N Hodge Ave,97203,340000,2,1,PORTSMOUTH,720,4791,1953,175,472,0,45.5916135,-122.720266
March-10-2020,7734 N Bank St,97203,320000,2,1,PORTLAND NORTH,720,5227,1954,163,444,0,45.5978689,-122.7416824
July-31-2020,5729 SE 41st Ave,97202,415000,2,1,PORTLAND SOUTHEAST,720,3920,1916,20,576,0,45.4807924,-122.6208756
March-26-2020,6619 SE Woodstock Blvd,97206,290000,2,1,MT SCOTT,720,4791,1953,147,403,0,45.4793258,-122.595433
July-24-2020,9124 SE Alder St,97216,372000,2,1,MONTAVILLA,724,4791,1947,27,514,0,45.5173991,-122.5698033
April-6-2020,7866 SE 65th Ave,97206,250000,2,1,BRENTWOOD,725,4791,1953,136,345,0,45.4663965,-122.5966339
July-22-2020,6232 SE Ramona St,97206,375000,2,1,WOODSTOCK,726,4791,1951,29,517,0,45.4807654,-122.5987602
April-3-2020,9516 NE Gertz Cir,97211,245000,2,1,PORTLAND NORTHEAST,726,3049,1944,139,337,80,45.592386,-122.6664387
June-18-2020,5004 SE Tenino Dr,97206,270000,3,1,PORTLAND SOUTHEAST,728,4356,1942,63,371,0,45.465779,-122.6117308
May-21-2020,7317 SE Umatilla St,97206,300000,2,1,BRENTWOOD,738,5662,1965,91,407,0,45.4638419,-122.5881336
July-21-2020,4546 NE 77th Ave,97218,371000,2,1,BEDFORD PARK,750,4791,1951,30,495,0,45.5561558,-122.5836455
June-1-2020,8234 N Willamette Blvd,97203,347500,2,1,ST JOHNS,752,2613,1950,80,462,0,45.5865015,-122.7535974
July-13-2020,4834 NE Prescott St,97218,385000,2,1,PORTLAND NORTHEAST,752,8712,1943,38,512,0,45.5553276,-122.6128535
April-24-2020,6816 N New York Ave,97203,250000,2,1,PORTLAND NORTH,756,4791,1919,118,331,0,45.5903217,-122.7607025
July-13-2020,7350 SE 68th Ave,97206,349000,2,1,PORTLAND SOUTHEAST,760,4791,1942,38,459,0,45.4697293,-122.59301
July-24-2020,9406 NE Gertz Ct,97211,250500,3,1,PORTLAND NORTHEAST,760,3484,1944,27,330,80,45.5915338,-122.6654699
June-30-2020,9216 SE Yamhill St,97216,310000,2,1,MONTAVILLA,764,6098,1948,51,406,0,45.5159393,-122.5687167
August-6-2020,6317 N Wilbur Ave,97217,405000,2,1,PORTLAND NORTH,768,4791,1951,14,527,0,45.5684743,-122.693811
April-6-2020,4806 SE 45th Ave,97206,382000,2,1,PORTLAND SOUTHEAST,768,4791,1948,136,497,0,45.4877819,-122.6156121
April-8-2020,4806 SE Glenwood St,97206,320500,2,1,WOODSTOCK,768,4356,1933,134,417,0,45.4742551,-122.6132152
May-26-2020,5232 NE 31st Ave,97211,404000,2,1,ALBERTA,768,4791,1952,86,526,0,45.5608439,-122.6335516
June-24-2020,4706 NE 78th Pl,97218,360000,2,1,PORTLAND NORTHEAST,774,5227,1951,57,465,0,45.5574265,-122.5817267
March-31-2020,804 SE 117th Ave,97216,293900,2,1,MILL PARK,777,2613,1945,142,378,0,45.516701,-122.54266
April-10-2020,6911 N Mears St,97203,306000,2,1,ST JOHNS,780,4791,1951,132,392,0,45.5947618,-122.7338264
June-5-2020,6114 SE Henderson St,97206,340000,2,1,BRENTWOOD,780,4791,1956,76,436,0,45.4691685,-122.600604
July-21-2020,5135 SE 63rd Ave,97206,371000,2,1,MT SCOTT,780,3920,1950,30,476,0,45.4856578,-122.5988623
August-14-2020,8923 SE Yamhill St,97216,341000,2,1,MONTAVILLA,784,3049,1944,6,435,0,45.5162815,-122.5716312
July-31-2020,8904 SE Yamhill St,97216,372000,2,1,PORTLAND SOUTHEAST,784,4356,1944,20,474,0,45.5159591,-122.5719978
July-7-2020,6025 N Burrage Ave,97217,385000,2,1,PORTLAND NORTH,784,4791,1949,44,491,0,45.5668088,-122.6948339
August-10-2020,624 SE 26th Ave,97214,418000,2,1,PORTLAND SOUTHEAST,784,4791,1950,10,533,0,45.5181503,-122.6387765
August-12-2020,9341 SE Salmon St,97216,308000,2,1,MONTAVILLA,786,6098,1949,8,392,0,45.5147102,-122.5666508
March-5-2020,2347 N Terry St,97217,295000,2,1,KENTON,790,1742,1910,168,373,0,45.5799799,-122.6911052
March-24-2020,4725 SE 49th Ave,97206,402500,2,1,WOODSTOCK,790,7405,1949,149,509,0,45.4880795,-122.6119227
August-14-2020,7348 SE Henry St,97206,337500,2,1,PORTLAND SOUTHEAST,792,5662,1950,6,426,0,45.4767237,-122.587012
April-3-2020,4725 N Depauw St,97203,355000,2,1,PORTSMOUTH,800,3484,1911,139,444,0,45.5776429,-122.7171713
July-10-2020,7305 N Saint Johns Ave,97203,375000,2,1,PORTLAND NORTH,800,3920,1947,41,469,0,45.5962305,-122.7616361
August-13-2020,8306 N Wayland Ave,97203,370000,2,1,PORTLAND NORTH,804,4791,1943,7,460,0,45.5833713,-122.711061
July-16-2020,6830 N Columbia Blvd,97203,303500,2,1,PORTLAND NORTH,806,5227,1979,35,377,0,45.5951695,-122.7330703
August-6-2020,7062 N Villard Ave,97217,412000,2,1,PORTLAND NORTH,806,4791,1949,14,511,0,45.5745364,-122.6972966
July-2-2020,8715 N Wayland Ave,97203,350000,2,1,PORTSMOUTH,816,5227,1950,49,429,0,45.5856143,-122.7115436
March-12-2020,9460 N Midway Ave,97203,300000,3,1,ST JOHNS,816,4791,1954,161,368,0,45.5930141,-122.7354206
July-31-2020,11604 SE Morrison St,97216,285000,2,1,PORTLAND SOUTHEAST,816,4791,1942,20,349,0,45.5166825,-122.5437153
February-28-2020,9011 N Drummond Ave,97217,375000,3,1,PORTLAND NORTH,816,4791,1955,174,460,0,45.5881521,-122.6996619
July-24-2020,7023 SE Knight St,97206,308500,2,1,PORTLAND SOUTHEAST,820,3920,1904,27,376,0,45.4804226,-122.590557
June-25-2020,8939 N Wall Ave,97203,380000,2,1,PORTLAND NORTH,822,4791,1955,56,462,0,45.5870086,-122.728481
July-7-2020,9416 NE Gertz Ct,97211,261000,3,1,SNOOZYS HOLLOW,822,5227,1944,44,318,80,45.5921936,-122.6649842
July-20-2020,3945 NE 72nd Ave,97213,380000,2,1,ROSEWAY,827,4356,1951,31,459,0,45.5517585,-122.5894322
March-27-2020,4628 SE 30th Ave,97202,380000,2,1,REED,827,4791,1955,146,459,0,45.4893336,-122.634079
March-25-2020,8755 N Wayland Ave,97203,384300,2,1,PORTLAND NORTH,830,4791,1950,148,463,0,45.5862001,-122.7115141
June-8-2020,8108 SE Clay St,97215,325000,2,1,MT TABOR,832,5227,1959,73,391,0,45.5113265,-122.57972
August-7-2020,4908 SE 59th Ave,97206,355000,2,1,PORTLAND SOUTHEAST,832,10454,1948,13,427,0,45.4870784,-122.6023782
June-18-2020,8567 N Burr Ave,97203,373000,2,1,ST JOHNS,836,4791,1950,63,446,0,45.5900241,-122.740752
July-15-2020,1148 SE 84th Ave,97216,291000,2,1.5,PORTLAND SOUTHEAST,840,4791,1960,36,346,0,45.5147606,-122.5769072
June-25-2020,5242 SE 42nd Ave,97206,405000,3,1,PORTLAND SOUTHEAST,840,4791,1951,56,482,0,45.4848553,-122.6192105
July-23-2020,2205 NE 80th Ave,97213,360000,2,1,PORTLAND NORTHEAST,844,6534,1950,28,427,0,45.5381968,-122.5811081
July-6-2020,705 NE 63rd Ave,97213,436000,2,1,NORTH TABOR,845,4791,1949,45,516,0,45.5278852,-122.5989114
July-15-2020,133 NE 53rd Ave,97213,477500,2,1,MT TABOR,847,4791,1951,36,564,0,45.5241354,-122.6090967
May-11-2020,8305 SE 74th Ave,97206,320000,2,1,PORTLAND SOUTHEAST,850,5662,1948,101,376,0,45.4635861,-122.5876827
July-28-2020,5616 SE Tolman St,97206,412000,2,1,WOODSTOCK,852,6534,1945,23,484,0,45.4773209,-122.6055863
April-6-2020,2637 N Farragut St,97217,396000,2,1,PORTLAND NORTH,856,4791,1949,136,463,0,45.5792847,-122.6944584
July-16-2020,9028 N Chautauqua Pl,97217,400000,3,1,PORTSMOUTH,858,7405,1970,35,466,0,45.5884509,-122.7075808
July-2-2020,8305 SE 75th Pl,97206,340000,3,1,PORTLAND SOUTHEAST,858,9147,1965,49,396,0,45.4637031,-122.5864181
July-14-2020,5418 NE 36th Ave,97211,416000,3,1,CONCORDIA,858,5662,1971,37,485,0,45.5622861,-122.6262833
August-6-2020,547 SE 113th Ave,97216,347000,2,1,MILL PARK,860,6098,1951,14,403,0,45.5182213,-122.547289
June-22-2020,3706 SE 67th Ave Unit B,97206,359900,2,1.5,FOSTER,861,861,2020,59,418,50,45.4955479,-122.5939814
June-25-2020,3724 SE 67th Ave Unit B,97206,354900,2,1.5,FOSTER,861,861,2020,56,412,50,45.4952309,-122.5939842
June-25-2020,3718 SE 67th Ave Unit B,97206,349900,2,1.5,FOSTER,861,861,2020,56,406,50,45.4953348,-122.5939833
June-26-2020,3712 SE 67th Ave Unit B,97206,367500,2,1.5,FOSTER,861,861,2020,55,427,50,45.4954413,-122.5939823
April-7-2020,7900 N Edison St,97203,389000,2,1,CATHEDRAL PARK,864,4791,1951,135,450,0,45.5846229,-122.7503798
March-13-2020,4836 N Houghton St,97203,349000,2,1,PORTSMOUTH,864,3049,1970,160,404,0,45.5864613,-122.717111
July-23-2020,8541 SE Taylor St,97216,410000,2,1,MONTAVILLA,864,4791,1947,28,475,0,45.5156492,-122.5752823
April-1-2020,5703 SE Lambert St,97206,315000,2,1,PORTLAND SOUTHEAST,864,5662,1923,141,365,0,45.467429,-122.6045683
June-18-2020,5829 SE Lambert St,97206,315000,2,1,PORTLAND SOUTHEAST,870,2613,1999,63,362,0,45.4674931,-122.6033416
March-2-2020,631 NE Stafford St,97211,385000,3,1,DEKUM TRIANGLE,873,4791,1960,171,441,0,45.5766913,-122.6585276
March-13-2020,8308 SE Hawthorne Blvd,97216,294000,2,1.5,PORTLAND SOUTHEAST,878,4791,1912,160,335,0,45.5118218,-122.5777517
August-3-2020,5580 SE Cooper St Unit B,97206,394250,2,1.5,WOODSTOCK,878,878,2020,17,449,83,45.4733267,-122.6057865
April-14-2020,3722 NE 67th Ave,97213,360500,1,1,ROSEWAY,880,3484,1925,128,410,0,45.5500561,-122.5939873
July-1-2020,6922 SE Woodstock Blvd,97206,333000,2,1,WOODSTOCK,880,3049,1909,50,378,0,45.4793567,-122.5912278
March-24-2020,7910 N Edison St,97203,431000,3,1,CATHEDRAL PARK,884,4791,1962,149,488,0,45.5846941,-122.7505424
March-6-2020,6617 SE 65th Ave,97206,313000,2,1,PORTLAND SOUTHEAST,884,6098,1961,167,354,0,45.4746361,-122.5963679
June-10-2020,5530 NE 35th Ave,97211,415000,2,1,CONCORDIA,884,4791,1950,71,469,0,45.5632337,-122.6283659
June-11-2020,6839 SE 47th Ave,97206,375000,2,1,WOODSTOCK,886,10018,1923,70,423,0,45.4733376,-122.6148005
March-20-2020,5130 N Willis Blvd,97203,375000,3,1,PORTSMOUTH,888,3920,1962,153,422,0,45.5839348,-122.7201386
June-17-2020,7911 SE Henry Pl,97206,300000,2,1,PORTLAND SOUTHEAST,888,4791,1913,64,338,0,45.4764109,-122.5822447
March-31-2020,712 SE 42nd Ave,97215,446000,2,1,SUNNYSIDE,889,2613,1917,142,502,0,45.5176573,-122.6193313
June-24-2020,11546 SE Yamhill St,97216,295000,2,1,PORTLAND SOUTHEAST,896,4791,1949,57,329,0,45.5160099,-122.544183
May-22-2020,4427 NE 71st Ave,97218,354900,2,1,ROSEWAY,896,4791,1949,90,396,0,45.5551854,-122.5904128
July-31-2020,5515 SE 62nd Ave,97206,424550,2,1,WOODSTOCK,898,6098,1951,20,473,0,45.4827629,-122.5998296
July-24-2020,5101 SE Malden Dr,97206,380000,3,1.5,BRENTWOOD,899,4356,1930,27,423,0,45.465837,-122.6107921
August-5-2020,11834 SE Ash St,97216,262000,2,1,VENTURA PARK,900,6534,1954,15,291,0,45.5209062,-122.5409001
May-6-2020,303 NE 45th Ave,97213,415000,2,1,LAURELHURST,900,4791,1920,106,461,0,45.525335,-122.6164241
April-6-2020,8032 SE Rhone St,97206,310000,2,1,PORTLAND SOUTHEAST,900,6534,1952,136,344,0,45.4953175,-122.5799385
July-9-2020,6519 SE Harold St,97206,420000,3,1,MT SCOTT,904,6969,1954,42,465,0,45.483212,-122.5963707
July-24-2020,6338 SE Raymond St,97206,280000,1,2,MT SCOTT,904,3920,1922,27,310,0,45.4865604,-122.5979648
March-9-2020,7141 N Campbell Ave,97217,309000,1,1,ARBOR LODGE,906,2613,1923,164,341,0,45.5750064,-122.6865325
April-3-2020,4924 SE Tolman St,97206,389500,3,1,PORTLAND SOUTHEAST,910,4791,1964,139,428,0,45.4768001,-122.6118018
May-7-2020,4034 N Attu St,97203,330000,3,1,PORTLAND NORTH,912,4791,1981,105,362,0,45.5898303,-122.7089264
July-10-2020,3435 NE 66th Ave,97213,325000,2,1,PORTLAND NORTHEAST,912,4791,1921,41,356,0,45.5479828,-122.5955876
June-4-2020,4254 SE Morrison St,97215,400000,2,1,SUNNYSIDE,912,4791,1917,77,439,0,45.5169773,-122.6184075
March-19-2020,5725 SE Tenino St,97206,310000,3,1,DARLINGTON,913,4791,1922,154,340,0,45.464662,-122.6041761
March-20-2020,6936 SE 68th Ave,97206,370000,2,1,WOODSTOCK,915,4356,1981,153,404,0,45.4723442,-122.5930122
July-1-2020,7225 SE Tenino St,97206,299900,3,1,PORTLAND SOUTHEAST,916,5662,1953,50,327,0,45.4645049,-122.5887868
July-29-2020,7913 N Jersey St,97203,372000,2,1,ST JOHNS,918,4791,1919,22,405,0,45.58817,-122.7481847
March-3-2020,9130 SE Stephens St,97216,335000,2,1,MONTAVILLA,918,6534,1954,170,365,0,45.509171,-122.5693394
April-16-2020,7241 SE Carlton St,97206,360000,2,1,MT SCOTT,920,5662,1951,126,391,0,45.478434,-122.5882087
June-1-2020,8111 SE 64th Ave,97206,325000,3,1,PORTLAND SOUTHEAST,926,4356,1930,80,351,0,45.4646831,-122.5978549
August-13-2020,9310 N Chase Ave,97217,358000,3,1,KENTON,928,5227,1954,7,386,0,45.5902713,-122.7040898
August-7-2020,9224 N Chase Ave,97217,343000,3,1,KENTON,928,4791,1955,13,370,0,45.589645,-122.7040851
April-20-2020,3616 NE 75th Ave,97213,329000,1,2,PORTLAND NORTHEAST,929,2613,1925,122,354,0,45.5491236,-122.5856202
June-26-2020,3800 SE 72nd Ave,97206,428500,2,1,MCLEES SUB,929,4356,1912,55,461,0,45.4948761,-122.5888031
August-6-2020,5105 SE 51st Ave,97206,415000,2,1,WOODSTOCK,929,5662,1951,14,447,0,45.4860431,-122.6107499
May-22-2020,7660 SE Henderson St,97206,279000,2,1,PORTLAND SOUTHEAST,935,13939,1946,90,298,0,45.4698415,-122.5841541
May-20-2020,10110 N Macrum Ave,97203,345000,3,1.5,EAST ST JOHNS,936,4791,1960,92,369,0,45.5962889,-122.7300991
July-10-2020,8927 N Geneva Ave,97203,377000,3,1.5,PORTLAND NORTH,936,4356,1955,41,403,0,45.5868912,-122.7274622
June-19-2020,1501 SE 117th Ave,97216,299000,2,1,PORTLAND SOUTHEAST,936,6534,1950,62,319,0,45.5127418,-122.5430707
February-27-2020,1526 SE 86th Ave,97216,385000,3,1.5,MONTAVILLA,936,4791,1959,175,411,0,45.5118386,-122.5748713
August-11-2020,3354 NE 74th Ave,97213,395000,2,2,ROSEWAY,936,4791,1921,9,422,0,45.5472029,-122.5865831
June-4-2020,7930 SE 79th Ave,97206,305500,3,1,PORTLAND SOUTHEAST,936,8276,1956,77,326,0,45.4658959,-122.5820268
June-4-2020,551 N Marine Dr,97217,301000,2,1,BRIDGETON,937,6098,1944,77,321,0,45.6024427,-122.6716649
June-1-2020,8130 SE 75th Pl,97206,327000,3,1,PORTLAND SOUTHEAST,946,8712,1966,80,346,0,45.464538,-122.5858591
May-1-2020,4038 SE 73rd Ave,97206,357100,2,1,PORTLAND SOUTHEAST,948,7405,1906,111,377,0,45.4931488,-122.5874967
August-14-2020,6855 N Hudson St,97203,412000,3,1,PORTLAND NORTH,952,6098,1954,6,433,0,45.5893146,-122.7357847
April-3-2020,8201 N Swenson St,97203,405000,3,1,ST JOHNS,952,8712,1955,139,425,0,45.5989553,-122.7457661
March-24-2020,7415 N Leonard St,97203,275000,2,1,ST JOHNS,953,4791,1919,149,289,0,45.5888493,-122.7427091
April-4-2020,7720 SE 45th Ave,97206,250000,2,1,PORTLAND SOUTHEAST,954,5662,1950,138,262,0,45.4673926,-122.6156825
July-6-2020,10020 N Mohawk Ave,97203,369900,3,1,ST JOHNS,960,4791,1958,45,385,0,45.597424,-122.7440275
August-6-2020,11531 SE Washington St,97216,318000,2,1,VENTURA PARK,960,4791,1955,14,331,0,45.5184602,-122.5444812
July-15-2020,1815 N Prescott St,97217,419900,2,1,OVERLOOK,960,4356,1948,36,437,0,45.5555979,-122.6862123
June-30-2020,3823 SE Lexington St,97202,410000,3,2,EASTMORELAND,960,4791,1951,51,427,0,45.4665453,-122.6229476
May-6-2020,6700 SE 63rd Ave,97206,339000,3,1,PORTLAND SOUTHEAST,960,5662,1955,106,353,0,45.4741546,-122.5978744
May-8-2020,6631 SE 48th Ave,97206,395000,3,1,WOODSTOCK,960,6098,1976,104,411,0,45.4747822,-122.6137482
March-16-2020,7047 NE Rodney Ct,97211,380000,3,1,PORTLAND NORTHEAST,960,6534,1973,157,396,0,45.5740345,-122.6646355
April-9-2020,6805 N Seneca St,97203,375000,3,1,ST JOHNS,966,4791,1954,133,388,0,45.5917546,-122.7334453
July-2-2020,9105 SE Morrison St,97216,370000,3,1,MONTAVILLA,966,4791,1947,49,383,0,45.5170315,-122.570183
February-28-2020,3227 NE 79th Ave,97213,319000,2,1,ROSEWAY,968,5662,1912,174,330,0,45.5458428,-122.5822227
July-15-2020,1551 N Webster St,97217,440000,2,1,OVERLOOK,972,4791,1925,36,453,0,45.5599979,-122.6834273
June-10-2020,1336 SE Marion St,97202,375000,2,1,PORTLAND SOUTHEAST,972,4791,1906,71,386,0,45.4598437,-122.6521765
March-10-2020,6655 SE 70th Ave,97206,345000,2,2,BRENTWOOD,973,4791,1972,163,355,0,45.4742528,-122.591598
July-29-2020,7237 N Fessenden St,97203,377500,3,1,ST JOHNS,976,4356,1954,22,387,0,45.5943643,-122.7380106
February-27-2020,8947 N Curtis Ave,97217,385100,3,1,KENTON,976,4791,1955,175,395,0,45.5877534,-122.6987235
March-3-2020,9015 N Peninsular Ave,97217,347000,3,1,KENTON,980,8276,1970,170,354,0,45.5880213,-122.6975038
June-30-2020,6303 SE 61st Ave,97206,330000,2,1,PORTLAND SOUTHEAST,980,4791,1924,51,337,0,45.4772245,-122.6012354
April-20-2020,7222 N Leonard St,97203,351000,2,1,PORTLAND NORTH,982,3920,1923,122,357,0,45.5881242,-122.7411538
June-11-2020,7325 SE Insley St,97206,369000,2,1,PORTLAND SOUTHEAST,984,4791,1907,70,375,0,45.4839313,-122.5873147
July-9-2020,8005 SE Tolman St,97206,365500,3,1,MT SCOTT,984,4356,1965,42,371,0,45.477817,-122.5814075
April-17-2020,6532 SE 44th Ave,97206,415000,3,1,WOODSTOCK,989,4791,1971,125,420,0,45.4753656,-122.6171843
April-27-2020,1308 SE 93rd Ave,97216,375000,3,1,PORTLAND SOUTHEAST,990,6969,1956,115,379,0,45.5132254,-122.5674432
May-15-2020,6641 SE 67th Ave,97206,342750,3,1,BRENTWOOD,990,4791,1960,97,346,0,45.4743325,-122.5944939
March-30-2020,1620 NE 65th Ave,97213,430000,2,1,ROSE CITY,996,5227,1950,143,432,0,45.5346111,-122.5964105
August-18-2020,5432 SE Cooper St,97206,419000,3,1,PORTLAND SOUTHEAST,996,6969,1942,2,421,0,45.4733951,-122.6066661
May-8-2020,7212 N Macrum Ave,97203,399000,2,2,PORTLAND NORTH,998,2613,2016,104,400,0,45.5833537,-122.7353428
July-13-2020,510 NE Holman St,97211,425000,2,1,GREEN RDG,1000,6098,1951,38,425,0,45.5681264,-122.6601193
May-14-2020,7128 NE Emerson St,97218,330000,3,1,CULLY,1000,8712,1976,98,330,0,45.5610805,-122.5895881
March-16-2020,8225 SE Morrison St,97216,364000,4,2,PORTLAND SOUTHEAST,1003,5227,1963,157,363,0,45.5171098,-122.5784232
March-18-2020,1563 SE 85th Ave,97216,399900,2,1.5,PORTLAND SOUTHEAST,1008,4791,1987,155,397,0,45.5112957,-122.5764425
June-26-2020,7515 SE Madison St,97215,491000,3,1,MT TABOR,1008,4791,1983,55,487,0,45.5132207,-122.5858403
June-26-2020,6100 SE Nehalem St,97206,335000,3,1.5,BRENTWOOD,1008,4356,1969,55,332,0,45.4656956,-122.6008475
July-6-2020,5436 SE Malden St,97206,365000,3,1,PORTLAND SOUTHEAST,1008,4791,1964,45,362,0,45.4677262,-122.606558
March-20-2020,7235 SE 57th Ave,97206,318000,3,2,BRENTWOOD,1008,4791,1995,153,315,0,45.4707064,-122.6050652
March-11-2020,3804 SE 27th Ave,97202,456000,3,1,PORTLAND SOUTHEAST,1010,4791,1951,162,451,0,45.4953531,-122.6383774
June-22-2020,3836 NE Emerson St,97211,470000,2,1,CONCORDIA,1011,4791,1951,59,465,0,45.5611762,-122.6237448
July-15-2020,5515 SE 54th Ave,97206,420000,3,1,WOODSTOCK,1012,3920,1959,36,415,0,45.4827601,-122.6075394
June-12-2020,6124 SW 32nd Ave,97239,394000,3,1,HILLSDALE,1013,4791,1925,69,389,0,45.4792749,-122.709259
April-6-2020,5524 SE Steele St,97206,390000,3,1,WOODSTOCK,1018,4356,1969,136,383,0,45.4844107,-122.6059714
July-31-2020,4817 SE 66th Ave,97206,268000,3,1,PORTLAND SOUTHEAST,1018,3920,1905,20,263,0,45.4881796,-122.5950822
May-15-2020,2810 NE 70th Ave,97213,378000,2,1.5,ROSE CITY,1020,3920,1974,97,371,0,45.5428367,-122.589573
August-14-2020,5833 N Montana Ave,97217,425000,2,1,PORTLAND NORTH,1020,5000,1910,6,417,0,45.5653555,-122.6804146
March-10-2020,5424 SE 64th Ave,97206,347500,2,1,MT SCOTT,1020,8712,1928,163,341,0,45.4833817,-122.5973484
March-4-2020,2340 N Winchell St,97217,405000,3,1.5,KENTON,1028,1742,1910,169,394,0,45.5800882,-122.69096
August-13-2020,955 NE 79th Ave,97213,410000,3,2,PORTLAND NORTHEAST,1029,5000,1912,7,398,0,45.5300298,-122.5823357
August-10-2020,3916 SE 44th Ave,97206,364900,1,1,PORTLAND SOUTHEAST,1030,4791,1949,10,354,0,45.4946022,-122.6171032
April-20-2020,8923 N Drummond Ave,97217,379370,3,1,PORTLAND NORTH,1032,7405,1955,122,368,0,45.5877427,-122.699687
April-10-2020,6125 SE Lambert St,97206,367000,3,1,PORTLAND SOUTHEAST,1032,4791,1967,132,356,0,45.4674411,-122.6003926
June-12-2020,2848 SE Tacoma St,97202,399000,3,2,SELLWOOD,1035,11761,1979,69,386,0,45.4633334,-122.6339439
May-22-2020,7626 N Fessenden St,97203,402000,3,2,PORTLAND NORTH,1040,4356,1953,90,387,0,45.59486,-122.7418499
July-8-2020,7950 SE Mitchell St,97206,290000,2,1.5,PORTLAND SOUTHEAST,1044,871,2015,43,278,0,45.4850979,-122.5811066
April-22-2020,4570 NE 36th Ave,97211,455000,2,1,BEAUMONT,1044,6534,1948,120,436,0,45.5562311,-122.6263491
May-11-2020,8530 N Ida Ave,97203,394000,3,1.5,ST JOHNS,1048,4791,1962,101,376,0,45.5886642,-122.7372957
May-14-2020,1226 SE 86th Ave,97216,355000,2,1,MONTAVILLA,1048,4791,1951,98,339,0,45.5139065,-122.5748247
June-24-2020,11832 SE Main St,97216,327250,3,1,PORTLAND SOUTHEAST,1050,10018,1954,57,312,0,45.5140175,-122.5408087
June-15-2020,1615 N Winchell St,97217,386000,3,2,PORTLAND NORTH,1050,4791,1978,66,368,0,45.5804677,-122.6833298
March-20-2020,1513 SE Ogden St,97202,485000,2,1,PORTLAND SOUTHEAST,1050,5227,1964,153,462,0,45.4724449,-122.6505386
April-30-2020,6915 NE Going St,97218,477000,2,1.5,PORTLAND NORTHEAST,1050,20037,1958,112,454,0,45.5571773,-122.5918969
June-1-2020,5931 SE Mitchell St,97206,322000,2,1,GRAHAMS ADD,1051,5227,1912,80,306,0,45.4856245,-122.6019511
April-24-2020,3155 SE 80th Ave,97206,350000,2,1,PORTLAND SOUTHEAST,1055,5662,1949,118,332,0,45.4993463,-122.5811081
May-19-2020,8335 N Hartman St,97203,255000,2,1,ST JOHNS,1056,4791,1949,93,241,0,45.5986996,-122.7477145
July-24-2020,10023 N Burr Ave,97203,260000,3,1,ST JOHNS,1056,4791,1964,27,246,0,45.5959763,-122.7377362
May-21-2020,5826 N Burrage Ave,97217,400000,3,2,OVERLOOK,1056,4791,1981,91,379,0,45.5655079,-122.6941758
July-29-2020,6601 SE Ramona St,97206,465000,3,2,MT SCOTT,1056,4791,1971,22,440,0,45.4812055,-122.5957147
July-29-2020,1147 SE Umatilla St,97202,420000,2,1,SELLWOOD,1057,3920,1905,22,397,0,45.463078,-122.6538975
April-28-2020,5915 SE 67th Ave,97206,365000,3,1,MT SCOTT,1058,4791,1904,114,345,0,45.4796762,-122.5946254
July-31-2020,11525 SE Sherman Ct,97216,385000,3,1,PORTLAND SOUTHEAST,1060,7405,1957,20,363,0,45.5057478,-122.5443102
March-23-2020,2447 N Watts St,97217,451000,3,1,KENTON,1060,5662,1954,150,425,0,45.5811213,-122.6921976
July-9-2020,5950 SE Tibbetts St,97206,430000,2,1,SOUTH TABOR,1062,6098,1953,42,405,0,45.500053,-122.6005734
April-30-2020,2027 SE 115th Pl,97216,259387,3,1,PORTLAND SOUTHEAST,1064,6969,1957,112,244,0,45.5084396,-122.5444931
July-22-2020,1115 NE 71st Ave,97213,379900,2,1,PORTLAND NORTHEAST,1064,5227,1951,29,357,0,45.5306265,-122.5901104
April-7-2020,3008 SE Francis St,97202,421500,2,1,PORTLAND SOUTHEAST,1064,4791,1951,135,396,0,45.4946275,-122.6343443
June-26-2020,9426 N Hodge Ave,97203,451000,3,2,PORTSMOUTH,1065,4791,1969,55,423,0,45.5906925,-122.7197044
June-12-2020,3104 SE 64th Ave,97206,370000,3,1,PORTLAND SOUTHEAST,1066,4791,1941,69,347,0,45.5001247,-122.5972672
April-8-2020,6236 NE Willow St,97213,365000,3,2,PORTLAND NORTHEAST,1072,6534,1979,134,340,0,45.529725,-122.5992285
August-14-2020,6533 SE 44th Ave,97206,415000,3,1,WOODSTOCK,1078,4791,1923,6,385,0,45.4753987,-122.617722
June-22-2020,1709 SE 89th Ave,97216,375000,2,1,MONTAVILLA,1082,6534,1927,59,347,0,45.5105893,-122.5723548
June-5-2020,8807 N Dana Ave,97203,445000,3,2,PORTLAND NORTH,1084,4791,1943,76,411,0,45.5860582,-122.7126292
August-11-2020,4915 NE 78th Ave,97218,425000,3,1,PORTLAND NORTHEAST,1086,4791,1950,9,391,0,45.5587618,-122.5830795
March-31-2020,6810 SE 67th Ave,97206,347200,3,1,PORTLAND SOUTHEAST,1088,5662,1956,142,319,0,45.4733565,-122.5939531
June-25-2020,515 NE Holland St,97211,355300,2,1,PORTLAND NORTHEAST,1088,4791,1951,56,327,0,45.5759841,-122.6599641
April-27-2020,5407 NE 37th Ave,97211,505000,3,1.5,CONCORDIA,1088,5662,1958,115,464,0,45.5621658,-122.6257922
May-22-2020,10102 N Smith St,97203,363000,2,2,PORTLAND NORTH,1089,8276,1954,90,333,0,45.6014056,-122.7587058
May-12-2020,4647 SE 47th Ave,97206,317000,4,1,WOODSTOCK,1089,3920,1954,100,291,0,45.4887387,-122.6141291
August-13-2020,7221 N Leonard St,97203,365000,1,1,ST JOHNS,1094,3484,1923,7,334,0,45.5884543,-122.7409916
July-27-2020,8033 N Lombard Way,97203,273000,2,1,PORTLAND NORTH,1095,5662,1919,24,249,0,45.5900375,-122.7485242
June-1-2020,8615 SE 15th,97202,460000,3,2,PORTLAND SOUTHEAST,1096,1096,1910,80,420,0,45.4604445,-122.6512298
July-31-2020,7822 SE Henry St,97206,290000,3,1,MT SCOTT,1096,4791,1982,20,265,0,45.4766639,-122.5828332
August-19-2020,5316 NE Mason St,97218,419000,1,1,PORTLAND NORTHEAST,1098,10018,1928,1,382,0,45.5523315,-122.6081151
July-6-2020,8937 N Peninsular Ave,97217,425000,3,1,KENTON,1100,4791,1968,45,386,0,45.5876168,-122.6974818
May-15-2020,6225 SE 51st Ave,97206,392000,2,1,WOODSTOCK,1100,4791,1958,97,356,0,45.4772787,-122.6102734
June-18-2020,8001 SE Henderson St,97206,340000,3,2,PORTLAND SOUTHEAST,1100,3920,1983,63,309,0,45.4702299,-122.5813976
April-14-2020,5634 NE Skidmore St,97218,409500,2,1,WEST CULLY,1101,5662,1948,128,372,0,45.5536484,-122.6046076
March-31-2020,4922 NE 78th Ave,97218,380000,2,1,CULLY,1103,4791,1950,142,345,0,45.5588773,-122.5825893
April-16-2020,4706 NE 24th Ave,97211,415000,2,1,ALBERTA,1104,3920,1908,126,376,0,45.5570007,-122.6405464
July-28-2020,6303 SE Ramona St,97206,405000,3,1,MT SCOTT,1105,7405,1953,23,367,0,45.4810936,-122.5981187
March-12-2020,7922 SE Knight St,97206,345000,3,1.5,PORTLAND SOUTHEAST,1106,4791,1969,161,312,0,45.4800945,-122.5819849
June-30-2020,5620 NE 45th Ave,97218,372000,2,1,PORTLAND NORTHEAST,1106,4356,1953,51,336,0,45.5638635,-122.6167591
May-22-2020,636 SE 84th Ave,97216,370000,3,2,MONTAVILLA,1108,4356,1995,90,334,0,45.5179144,-122.5769182
March-20-2020,7130 SE Cora St,97206,392000,3,1,FOSTER,1112,3920,1906,153,353,0,45.4915282,-122.5895818
July-8-2020,6403 SE 71st Ave,97206,339000,2,1,MT SCOTT,1112,3920,1915,43,305,0,45.4766626,-122.5905414
July-16-2020,7410 N Hodge Ave,97203,400000,3,2,PORTSMOUTH,1114,3484,1981,35,359,0,45.580256,-122.722076
May-15-2020,2833 SE 60th Ave,97206,442000,2,1,SOUTH TABOR,1114,4791,1949,97,397,0,45.5020073,-122.6014276
July-2-2020,2995 SW Champlain Dr,97205,401000,2,1,RALEIGH HILLS,1115,10018,1954,49,360,0,45.5219869,-122.7122702
July-24-2020,11513 SE Stephens St,97216,331000,3,2,MILL PARK,1116,6098,1995,27,297,0,45.510156,-122.5447742
August-12-2020,4229 NE Skidmore St,97218,425000,2,1,BEAUMONT,1116,4356,1928,8,381,0,45.5538731,-122.6197132
June-30-2020,2936 SE Tacoma St,97202,413000,2,1,PORTLAND SOUTHEAST,1118,6534,1964,51,369,0,45.4625794,-122.6325179
August-11-2020,6323 SE 61st Ave,97206,360000,2,1,MT SCOTT,1118,8712,1911,9,322,0,45.4768952,-122.6012387
March-3-2020,5810 SE Henderson St,97206,326000,2,1,PORTLAND SOUTHEAST,1120,7840,1944,170,291,0,45.4690519,-122.6040805
July-6-2020,7804 SE Hawthorne Blvd,97215,398500,2,1,MONTAVILLA,1122,4791,1953,45,355,0,45.5120551,-122.5829341
April-15-2020,3775 SE 9th Ave,97202,430000,2,1,BROOKLYN,1122,4356,1919,127,383,0,45.4952629,-122.6569788
March-13-2020,7118 SE Center St,97206,420000,3,1,FOSTER,1124,4791,1976,160,374,0,45.4936538,-122.5897699
April-17-2020,3228 SW 13th Ave,97239,475000,3,1,MARQUAM HILL,1125,5227,1952,125,422,0,45.4994394,-122.6928908
May-6-2020,5428 SE Flavel Dr,97206,424780,3,2,PORTLAND SOUTHEAST,1126,12632,1975,106,377,0,45.4651194,-122.6073964
July-15-2020,5820 SE Liebe St,97206,382500,3,1.5,WOODSTOCK,1128,5227,1981,36,339,0,45.4870676,-122.6035674
July-15-2020,3822 SE 67th Ave,97206,390000,2,1,FOSTER,1130,3920,1902,36,345,0,45.4947308,-122.593978
May-8-2020,2206 N Saratoga St,97217,425000,3,2,PORTLAND NORTH,1132,6969,1951,104,375,0,45.5724087,-122.6894672
July-10-2020,3917 SW Cullen Blvd,97221,468000,2,1.5,VERMONT HILLS,1132,9583,1977,41,413,0,45.4830947,-122.7162942
April-2-2020,3744 SE Steele St,97202,400000,3,2,PORTLAND SOUTHEAST,1132,5227,1972,140,353,0,45.4845297,-122.6238198
May-22-2020,4867 SE 65th Ave,97206,355000,2,1,ARLETA PARK,1132,4356,1910,90,314,0,45.4873031,-122.5961549
May-26-2020,6114 SE 72nd Ave,97206,297000,3,2,MT SCOTT,1134,5662,1953,86,262,0,45.4786421,-122.5889698
June-3-2020,4246 NE Wygant St,97218,438000,2,1,PORTLAND NORTHEAST,1134,6098,1947,78,386,0,45.5572687,-122.61938
April-22-2020,7715 N Dwight Ave,97203,416000,3,2,PORTLAND NORTH,1136,6098,1955,120,366,0,45.5804086,-122.7148074
August-4-2020,4815 NE 80th Ave,97218,375000,3,1,CULLY,1136,6098,1948,16,330,0,45.5583423,-122.5802755
July-23-2020,6520 N Amherst St,97203,420000,2,1,PORTSMOUTH,1140,5662,1948,28,368,0,45.5811299,-122.7361412
April-14-2020,7814 SE Taylor St,97215,480000,3,2,MONTAVILLA,1140,5227,1975,128,421,0,45.5150375,-122.5828534
March-13-2020,5708 SE Raymond St,97206,347500,3,2,WOODSTOCK,1140,6098,1989,160,305,0,45.486172,-122.6048278
June-22-2020,4617 SE 33rd Ave,97202,440000,2,1,REED,1142,7405,1964,59,385,0,45.4893562,-122.6317001
July-31-2020,9514 N Kellogg St,97203,421000,3,2,ST JOHNS,1144,4791,1993,20,368,0,45.5951512,-122.7588768
August-14-2020,4104 SE 74th Ave,97206,410000,3,2,FOSTER,1144,5227,1977,6,358,0,45.493034,-122.5865715
April-30-2020,71 NE Fargo St,97212,485000,3,1,PORTLAND NORTHEAST,1147,4791,1971,112,423,0,45.5462945,-122.6646932
May-21-2020,9620 N Edison St,97203,415000,3,2,CATHEDRAL PARK,1148,5227,1995,91,361,0,45.5942766,-122.7641567
April-14-2020,4911 SE Carlton St,97206,415000,2,1,WOODSTOCK,1148,4791,1950,128,361,0,45.4778725,-122.6120418
June-10-2020,4505 N Mississippi Ave,97217,370000,2,1,PORTLAND NORTH,1152,4791,1923,71,321,0,45.5555996,-122.6762036
May-28-2020,5818 SE Flavel St,97206,343000,3,2,PORTLAND SOUTHEAST,1160,4356,1997,84,296,0,45.4684344,-122.6035734
July-13-2020,2889 NW Thurman St,97210,610000,2,1,NORTHWEST,1163,1163,1952,38,525,0,45.5354164,-122.7107813
August-18-2020,43 SE 89th Ave,97216,405000,2,1,MONTAVILLA,1164,3484,1931,2,348,0,45.5220675,-122.5721589
July-16-2020,325 SE 75th Ave,97215,433895,3,2,PORTLAND SOUTHEAST,1164,4791,1900,35,373,0,45.5198654,-122.5861232
April-14-2020,3417 SW 12th Ave,97239,419000,2,2,MARQUAM HILL,1164,4791,1895,128,360,0,45.4981682,-122.6926593
August-3-2020,8910 N Endicott Ave,97217,390000,3,1,PORTLAND NORTH,1165,4791,1980,17,335,0,45.5873535,-122.701124
May-5-2020,6743 SE 66th Ave,97206,365000,3,1.5,BRENTWOOD,1170,6969,1991,107,312,0,45.4736079,-122.5954771
May-13-2020,6335 NE 36th Ave,97211,375000,3,1,PORTLAND NORTHEAST,1172,6098,1947,99,320,0,45.5688898,-122.6268834
June-30-2020,29 SE 119th Ave,97216,292000,3,1,PORTLAND SOUTHEAST,1174,4791,1963,51,249,0,45.5219282,-122.5405599
June-29-2020,4629 NE Alberta St,97218,535000,3,2,CULLY,1174,10890,1979,52,456,0,45.5592292,-122.6154367
March-30-2020,9116 N Ida Ave,97203,395000,3,1,PORTLAND NORTH,1175,4791,1951,143,336,0,45.5903051,-122.7364183
August-7-2020,3155 NE 80th Ave,97213,413500,2,1,PORTLAND NORTHEAST,1176,4791,1954,13,352,0,45.5453879,-122.5810743
July-8-2020,7118 SE Boise St,97206,375000,3,1,PORTLAND SOUTHEAST,1176,3920,1969,43,319,0,45.4922165,-122.5897719
July-9-2020,6842 NE 6th Ave,97211,488000,3,2,DEKUM TRIANGLE,1176,4791,1997,42,415,0,45.5725243,-122.6590779
April-30-2020,4447 NE Skidmore St,97218,385000,2,1,BEAUMONT,1176,8276,1926,112,327,0,45.5538954,-122.6173308
June-5-2020,5546 NE Wygant St,97218,395000,3,2,PORTLAND NORTHEAST,1180,9583,1938,76,335,0,45.557726,-122.6059968
July-21-2020,5404 NE 74th Ave,97218,219000,3,1,CULLY,1180,7405,1942,30,186,0,45.5622162,-122.5862913
June-1-2020,5246 NE 26th Ave,97211,540000,3,2,ALBERTA,1181,4791,1951,80,457,0,45.5609671,-122.6386578
July-22-2020,5523 SE Knight St,97206,460000,3,2,PORTLAND SOUTHEAST,1184,4791,1992,29,389,0,45.4803229,-122.6060485
July-17-2020,7214 N Albina Ave,97217,350000,1,1,PORTLAND NORTH,1187,4791,1922,34,295,0,45.5753866,-122.6745366
June-26-2020,14 SE 94th Ave,97216,375000,3,1,MONTAVILLA,1194,5227,1948,55,314,0,45.5223661,-122.5665942
May-28-2020,5345 NE 41st Ave,97211,475000,2,1,CONCORDIA,1194,4791,1949,84,398,0,45.5620012,-122.6216804
March-13-2020,8326 N Fox St,97203,399988,3,1,ST JOHNS,1196,4791,1965,160,334,0,45.5971263,-122.7482522
August-7-2020,7511 SE Crystal Springs Blvd,97206,340000,3,1,PORTLAND SOUTHEAST,1196,7405,1949,13,284,0,45.4654366,-122.5865133
May-15-2020,2821 N Kilpatrick St,97217,365000,2,1,KENTON,1197,4791,1900,97,305,0,45.5821998,-122.6960517
April-9-2020,9753 N Central St,97203,427250,3,1,ST JOHNS,1198,5227,1971,133,357,0,45.5982039,-122.7586064
April-28-2020,3921 SE Nehalem St,97202,330000,2,1,PORTLAND SOUTHEAST,1199,4791,1913,114,275,0,45.4659082,-122.6221495
July-30-2020,1137 SE 88th Ave,97216,425000,3,2,PORTLAND SOUTHEAST,1200,5227,1954,21,354,0,45.5148665,-122.5733618
May-1-2020,315 NE 65th Ave,97213,455000,3,2,PORTLAND NORTHEAST,1200,7840,1973,111,379,0,45.5249994,-122.5974336
March-19-2020,5830 SE 80th Ave,97206,345000,2,1,WOODSTOCK,1200,6534,1928,154,288,0,45.4803774,-122.5813562
August-7-2020,6603 SE Steele St,97206,460000,3,3,PORTLAND SOUTHEAST,1200,3920,1917,13,383,0,45.484402,-122.5955046
June-10-2020,710 N Buffalo St,97217,434000,3,2,PIEDMONT,1203,4791,1925,71,361,0,45.5749525,-122.6739975
June-11-2020,6327 SE 63rd Ave,97206,420000,3,2,MT SCOTT,1205,5227,1980,70,349,0,45.4768164,-122.5986614
April-3-2020,5405 NE Mason St,97218,475000,3,2,CULLY,1206,3049,1980,139,394,0,45.552694,-122.6073029
March-30-2020,9415 N Portsmouth Ave,97203,420000,3,1,PORTLAND NORTH,1207,4791,1949,143,348,0,45.5906575,-122.7213839
February-28-2020,10161 N Ziegler Ave,97203,327950,2,1.5,PORTLAND NORTH,1208,2613,2005,174,271,0,45.5996773,-122.7482608
June-24-2020,7620 SE Main St,97215,417000,3,2,MT TABOR,1208,5227,1988,57,345,0,45.5134958,-122.5846521
May-13-2020,10265 N Polk Ave,97203,355000,3,1,ST JOHNS,1209,4791,1961,99,294,0,45.5988805,-122.7406176
April-6-2020,7675 N Albina Ave,97217,290000,2,2,PIEDMONT,1211,5662,1949,136,239,0,45.5790271,-122.6747326
May-22-2020,6910 NE 27th Ave,97211,431000,3,2,CONCORDIA,1212,3920,1951,90,356,0,45.5727598,-122.6378896
July-7-2020,9318 SE Market St,97216,345000,3,2,MONTAVILLA,1213,4791,1994,44,284,0,45.5105261,-122.5668958
May-15-2020,8606 N Fiske Ave,97203,390000,2,1,PORTSMOUTH,1215,4791,1947,97,321,0,45.5849398,-122.7160799
March-5-2020,5530 SE Bybee Blvd,97206,365000,3,1,BRENTWOOD,1216,9147,1946,168,300,0,45.4725126,-122.6059613
August-3-2020,3823 SE 64th Ave,97206,380000,2,1,PORTLAND SOUTHEAST,1218,1218,1906,17,312,0,45.4946985,-122.5975463
July-6-2020,5205 SE 46th Ave,97206,430000,3,1,WOODSTOCK,1218,2613,1951,45,353,0,45.4855312,-122.6156865
July-30-2020,1804 SE 43rd Ave,97215,450000,3,1,HAWTHORNE,1220,4356,1968,21,369,0,45.5102078,-122.6177605
July-15-2020,1820 NE Buffalo St,97211,308680,3,1,WOODLAWN,1220,4791,1974,36,253,0,45.5745806,-122.6462379
May-15-2020,6228 SE Lincoln St,97215,471937,3,2,PORTLAND SOUTHEAST,1222,4791,1988,97,386,0,45.5078558,-122.5991568
March-19-2020,8020 SE Madison St,97215,449000,3,2,MONTAVILLA,1222,4356,1989,154,367,0,45.512639,-122.5808492
March-27-2020,5613 SE Bush St,97206,360000,4,1,PORTLAND SOUTHEAST,1224,3920,1962,146,294,0,45.4955707,-122.6049619
March-18-2020,3538 N Halleck St,97217,449900,3,2,KENTON,1224,7405,1954,155,368,0,45.5824679,-122.7035209
June-26-2020,1644 N Jarrett St,97217,432000,3,1,OVERLOOK,1224,4356,1927,55,353,0,45.5646502,-122.6844096
March-23-2020,4615 NE Wistaria Dr,97213,480000,2,2,BEAUMONT,1228,6969,1923,150,391,0,45.5417045,-122.6156386
May-11-2020,7909 SE Cesar E Chavez Blvd,97202,465000,2,1,EASTMORELAND,1229,4356,1951,101,378,0,45.466203,-122.6228631
June-12-2020,5426 NE Church St,97218,397000,3,2,CULLY,1230,4791,1995,69,323,0,45.5632948,-122.6070959
July-1-2020,5130 N Yale St,97203,377200,3,1,PORTSMOUTH,1240,5662,1943,50,304,0,45.5762833,-122.7250567
May-4-2020,8515 N Saint Louis Ave,97203,364000,3,1,ST JOHNS,1240,2613,1906,108,294,0,45.5943018,-122.7552747
February-24-2020,8823 N Druid Ave,97203,425000,3,2.5,PORTSMOUTH,1242,4791,1997,178,342,0,45.5862997,-122.7176143
July-24-2020,7510 SE Taggart Ct,97206,440000,3,1.5,PORTLAND SOUTHEAST,1244,6098,1989,27,354,0,45.5026346,-122.5850466
June-18-2020,9126 N Hodge Ave,97203,373000,3,2,PORTSMOUTH,1245,5227,2004,63,300,0,45.5891162,-122.7197408
July-30-2020,3531 SE 64th Ave,97206,397000,2,2,FOSTER,1245,3920,1907,21,319,0,45.4969143,-122.5975494
June-18-2020,7812 SE Crystal Springs Blvd,97206,330000,3,1,PORTLAND SOUTHEAST,1246,6969,1965,63,265,0,45.4649133,-122.5830156
July-13-2020,3234 NE 81st Ave,97213,415000,4,1.5,PORTLAND NORTHEAST,1248,4791,1954,38,333,0,45.5459313,-122.579502
March-20-2020,6849 N Michigan Ave,97217,425000,2,1,PIEDMONT,1248,4356,1924,153,341,0,45.5725252,-122.6770444
March-5-2020,5404 SE Gladstone St,97206,490000,3,2,CRESTON,1251,5227,1905,168,392,0,45.4929773,-122.6070058
June-16-2020,813 NE Sumner St,97211,476000,3,1,PORTLAND NORTHEAST,1252,2178,1908,65,380,0,45.5607691,-122.6571558
March-6-2020,7424 SE Ogden St,97206,360000,3,1.5,BRENTWOOD,1254,6969,1947,167,287,0,45.4707862,-122.5868469
March-31-2020,626 N Lombard St,97217,375000,2,1,PIEDMONT,1256,4791,1927,142,299,0,45.5770326,-122.6733812
June-29-2020,3206 SW 13th Ave,97239,438600,2,1,RALEIGH HILLS,1256,4791,1946,52,349,0,45.4997268,-122.6927633
March-25-2020,5326 N Depauw St,97203,380000,3,2,PORTSMOUTH,1260,4791,1991,148,302,0,45.5803188,-122.7264939
July-9-2020,6217 N Astor St,97203,403150,3,3,PORTLAND NORTH,1261,4791,2004,42,320,0,45.5963048,-122.728768
March-9-2020,66 NE Baldwin St,97211,309000,2,1,PORTLAND NORTHEAST,1262,4791,1947,164,245,0,45.5784716,-122.6654263
August-18-2020,8515 N Exeter Ave,97203,436000,3,2,PORTSMOUTH,1263,4791,1979,2,345,0,45.5856672,-122.7229164
May-8-2020,6831 SE Tolman St,97206,381500,3,2,PORTLAND SOUTHEAST,1264,7405,1951,104,302,0,45.4775608,-122.5926098
March-16-2020,1535 SE Bidwell St,97202,535000,2,2,PORTLAND SOUTHEAST,1272,4791,1908,157,421,0,45.4680832,-122.6501881
May-13-2020,108 N Farragut St,97217,365000,3,1,PIEDMONT,1274,6098,1926,99,286,0,45.5791467,-122.6675883
June-5-2020,6621 N Bank St,97203,370000,3,2,PORTLAND NORTH,1276,5227,1997,76,290,0,45.5970628,-122.7310229
July-22-2020,9612 N Todd St,97203,420000,3,2,ST JOHNS,1276,4791,1997,29,329,0,45.5999072,-122.7506204
February-24-2020,9525 N Tioga Ave,97203,350000,3,1,ST JOHNS,1280,5227,1942,178,273,0,45.595339,-122.7412566
May-12-2020,8044 N Central St,97203,355000,2,1,ST JOHNS,1280,3920,1914,100,277,0,45.5906088,-122.7483164
May-1-2020,3625 NE Cleveland Ave,97212,265000,2,1,BOISE,1280,2178,1923,111,207,0,45.5492027,-122.6658507
July-8-2020,9255 SE Main St,97216,405000,3,1,MONTAVILLA,1280,5227,1956,43,316,0,45.5135593,-122.5679404
March-17-2020,3402 NE 57th Ave,97213,470000,3,2,ROSE CITY,1280,5227,1952,156,367,0,45.5475841,-122.6042909
April-20-2020,3236 SE Tibbetts St,97202,525000,2,1,CLINTON,1280,3920,1925,122,410,0,45.5003737,-122.6317878
June-26-2020,4806 SE 70th Ave,97206,420000,2,1,FOSTER,1280,4791,1926,55,328,0,45.488298,-122.5909879
April-24-2020,9301 N Minerva Ave,97203,410000,3,1,ST JOHNS,1283,4356,1952,118,320,0,45.5908191,-122.7330248
April-1-2020,6247 SE Ogden St,97206,274900,3,2,PORTLAND SOUTHEAST,1284,3920,1945,141,214,0,45.4712504,-122.5986161
May-21-2020,4311 NE 80th Ave,97218,415000,2,1,ROSEWAY,1284,3484,1925,91,323,0,45.5540547,-122.5809594
July-15-2020,5240 NE Garfield Ave,97211,470000,2,2.5,KING,1285,1285,2013,36,366,0,45.5611111,-122.6624741
August-14-2020,2824 SE Division St,97202,485000,2,1,PORTLAND SOUTHEAST,1286,4791,1908,6,377,0,45.5046193,-122.6370313
July-24-2020,8719 N Portsmouth Ave,97203,410000,3,1.5,PORTLAND NORTH,1288,6534,2000,27,318,0,45.5861458,-122.7216827
June-15-2020,4206 NE 57th Ave,97218,370000,3,1,PORTLAND NORTHEAST,1288,6098,1950,66,287,0,45.5532662,-122.6042602
July-31-2020,3004 SE 71st Ave,97206,394999,3,2,PORTLAND SOUTHEAST,1293,4791,1924,20,305,0,45.500634,-122.589637
May-14-2020,3140 N Willis Blvd,97217,330500,2,1,PORTLAND NORTH,1296,4356,1925,98,255,0,45.5837827,-122.6993282
March-6-2020,2626 N Willis Blvd,97217,530000,3,2,PORTLAND NORTH,1297,4791,1922,167,409,0,45.5836144,-122.6940483
March-17-2020,7329 N Jordan Ave,97203,366500,3,2,PORTSMOUTH,1298,5227,1980,156,282,0,45.5789676,-122.7207044
July-16-2020,9846 N Central St,97203,402000,2,1,ST JOHNS,1298,5227,1919,35,310,0,45.5986505,-122.7595551
July-8-2020,5232 NE Halsey St,97213,420000,2,1,HOLLYWOOD,1298,5227,1925,43,324,0,45.5335391,-122.6093691
May-14-2020,1304 NE 52nd Ave,97213,450000,3,1,ROSE CITY,1298,4356,1925,98,347,0,45.5324003,-122.6098783
June-4-2020,4814 NE 25th Ave,97211,385000,1,2,ALBERTA,1300,3049,1911,77,296,0,45.557915,-122.6397139
February-27-2020,8333 N Hendricks St,97203,353000,3,1.5,CHARLESTON PARK PLACE,1302,3920,2002,175,271,0,45.6004769,-122.7466385
June-11-2020,5621 SE 65th Ave,97206,450000,3,1,MT SCOTT,1303,4791,1952,70,345,0,45.4819801,-122.5972715
August-5-2020,9617 N Todd St,97203,420000,3,2.5,ST JOHNS,1306,6969,1997,15,322,0,45.6001856,-122.750267
June-22-2020,6425 SE Lambert St,97206,343500,3,1,BRENTWOOD,1306,4791,1946,59,263,0,45.4675319,-122.5970606
April-17-2020,5307 NE 38th Ave,97211,430000,2,1,CONCORDIA,1306,4791,1922,125,329,0,45.5614655,-122.6247358
July-13-2020,3444 SE Lincoln St,97214,400000,1,1,HAWTHORNE,1310,4791,1907,38,305,0,45.5078868,-122.6285882
July-22-2020,9605 N Todd St,97203,400000,3,2.5,PORTLAND NORTH,1312,5227,1997,29,305,0,45.6000529,-122.7501674
August-14-2020,8718 N Haven Ave,97203,400000,3,2,PORTSMOUTH,1312,4791,2002,6,305,0,45.5857043,-122.7180579
June-2-2020,1025 NE Beech St,97212,460000,3,2,SABIN,1312,2613,1989,79,351,0,45.5496618,-122.6551448
May-7-2020,7313 SE Crystal Springs Blvd,97206,267500,4,1,PORTLAND SOUTHEAST,1312,8276,1948,105,204,0,45.4658295,-122.5877227
July-21-2020,3218 N Arlington Pl,97217,400000,3,2.5,PORTLAND NORTH,1313,2613,2004,30,305,0,45.5831327,-122.7001991
April-16-2020,5904 NE 23rd Ave,97211,510000,4,2,CONCORDIA,1315,4791,1971,126,388,0,45.565345,-122.6420677
July-22-2020,6949 NE Stanton St,97213,419000,2,1,PORTLAND NORTHEAST,1317,5662,1927,29,318,0,45.5438386,-122.5910668
June-17-2020,6916 N Fenwick Ave,97217,480000,2,1,ARBOR LODGE,1320,4791,1929,64,364,0,45.5728552,-122.6849967
July-13-2020,8601 N Hamlin Ave,97217,395000,2,1,PORTLAND NORTH,1320,7405,1943,38,299,0,45.5850241,-122.7026104
April-28-2020,4727 NE 74th Ave,97218,315000,3,1.5,CULLY,1322,10454,1948,114,238,0,45.5577731,-122.5870421
July-31-2020,5286 NE 72nd Ave,97218,375000,3,1,PORTLAND NORTHEAST,1323,7405,1943,20,283,0,45.5615218,-122.5885929
April-1-2020,7715 SE 68th Ave,97206,350000,2,1,BRENTWOOD,1324,5662,1956,141,264,0,45.4677546,-122.5935083
May-12-2020,10953 SE Salmon St,97216,245000,3,1,PORTLAND SOUTHEAST,1325,1325,1958,100,185,0,45.5149282,-122.550018
June-12-2020,9805 N Clarendon Ave,97203,358500,3,1,ST JOHNS,1326,4791,1962,69,270,0,45.5936007,-122.724367
May-8-2020,5612 SE Liebe St,97206,322000,1,1,PORTLAND SOUTHEAST,1328,4356,1924,104,242,0,45.4871515,-122.605391
August-14-2020,5320 SE 69th Ave,97206,442000,2,2,FOSTER,1329,6534,1906,6,333,0,45.4841889,-122.5920305
June-22-2020,4301 SE 73rd Ave,97206,406500,3,2,FOSTER,1330,6098,1975,59,306,0,45.4916194,-122.5883008
March-4-2020,3825 SE Center St,97202,415000,3,1,WILLIAMS,1330,4791,1982,169,312,0,45.4942725,-122.6232664
August-14-2020,4644 N Haight Ave,97217,545000,3,2,HUMBOLDT,1332,3484,1996,6,409,0,45.5567032,-122.6698107
August-14-2020,9802 N Clarendon Ave,97203,377000,3,2,EAST ST JOHNS,1334,2178,2004,6,283,0,45.5935649,-122.7238052
March-25-2020,1326 SE Lambert St,97202,452500,2,1,SELLWOOD,1334,4791,1906,148,339,0,45.4684253,-122.6523506
April-29-2020,8815 N Haven Ave,97203,392500,2,1.5,PORTSMOUTH,1336,4791,1951,113,294,0,45.5861868,-122.7186068
March-18-2020,4116 N Borthwick Ave,97217,450000,2,1,PORTLAND NORTH,1336,5227,1933,155,337,0,45.5536111,-122.6731377
June-5-2020,4532 SE 28th Ave,97202,420000,3,2.5,PORTLAND SOUTHEAST,1336,3920,1996,76,314,0,45.4897578,-122.6372428
May-8-2020,4361 NE 62nd Ave,97218,430000,3,2.5,ROSEWAY,1336,6534,2002,104,322,0,45.55462507,-122.6000323
April-10-2020,4116 SE 65th Ave,97206,420000,2,1,FOSTER,1337,3920,1906,132,314,0,45.4927385,-122.596101
July-17-2020,415 NE 71st Ave,97213,457000,3,2,JONESMORE,1344,4791,1981,34,340,0,45.525808,-122.5900623
June-6-2020,4119 NE 54th Ave,97218,390000,2,1,ROSE CITY,1344,5662,1926,75,290,0,45.5528451,-122.6077622
May-21-2020,4424 NE Sumner St,97218,456000,3,2,PORTLAND NORTHEAST,1344,6098,1982,91,339,0,45.5595636,-122.6178339
July-10-2020,9406 N Macrum Ave,97203,347500,3,2.5,PORTLAND NORTH,1346,1742,2008,41,258,0,45.5909745,-122.7314328
March-30-2020,8443 N Hartman St,97203,511000,3,2.5,ST JOHNS,1346,4791,1955,143,380,0,45.5989036,-122.7486174
May-27-2020,7035 N Greeley Ave,97217,372000,2,1,ARBOR LODGE,1348,4791,1923,85,276,0,45.5741245,-122.6957908
March-31-2020,4908 SE 66th Ave,97206,475000,3,2.5,ARLETA PARK,1349,3484,2004,142,352,0,45.4870808,-122.5946676
April-3-2020,9026 N Polk Ave,97203,421000,2,1,ST JOHNS,1350,4791,1934,139,312,0,45.5914841,-122.7437685
June-18-2020,635 SE 113th Ave,97216,340000,3,1.5,MILL PARK,1350,6098,1951,63,252,0,45.5177108,-122.5473448
May-26-2020,7524 N Central St,97203,500000,2,2,ST JOHNS,1351,4356,1923,86,370,0,45.5894611,-122.7436562
July-24-2020,8730 N Foss Ave,97203,435000,3,2.5,PORTSMOUTH,1352,5227,1997,27,322,0,45.5857851,-122.7099857
August-4-2020,9585 N Polk Ave,97203,385000,3,1,ST JOHNS,1353,4791,1942,16,285,0,45.5963458,-122.7418401
July-24-2020,7012 NE Siskiyou St,97213,435000,3,2,ROSEWAY,1353,2613,1915,27,322,0,45.5451246,-122.5905149
July-14-2020,8022 SE 80th Pl,97206,295000,3,2,PORTLAND SOUTHEAST,1354,2613,2008,37,218,0,45.4653481,-122.5808846
April-21-2020,4013 N Michigan Ave,97227,480000,3,2,BOISE,1356,4791,1994,121,354,0,45.5524371,-122.6768311
July-20-2020,7219 SE Insley St,97206,375000,2,1,PORTLAND SOUTHEAST,1356,4791,1907,31,277,0,45.4839145,-122.5886195
March-11-2020,3134 NE 67th Ave,97213,385000,2,2,ROSEWAY,1360,4791,1923,162,283,0,45.545891,-122.5940637
June-3-2020,9330 N Woolsey Ave,97203,320000,3,2.5,NEW COLUMBIA,1362,2178,2007,78,235,101,45.590892,-122.7137619
March-20-2020,7812 N Clarendon Ave,97203,460000,3,2.5,PORTSMOUTH,1362,4791,2003,153,338,0,45.5845158,-122.7253473
August-14-2020,5325 NE 35th Pl,97211,529000,2,1,PORTLAND NORTHEAST,1362,4791,1925,6,388,0,45.561745,-122.6278779
July-29-2020,4114 NE 76th Ave,97218,425000,2,1,ROSEWAY,1364,4791,1905,22,312,0,45.5527355,-122.5844454
May-29-2020,5614 SE Francis St,97206,304687,3,1,PORTLAND SOUTHEAST,1368,3920,1911,83,223,0,45.4946082,-122.6049869
May-13-2020,7810 SE Tolman St,97206,400000,3,2,PORTLAND SOUTHEAST,1368,4791,2001,99,292,0,45.4773906,-122.5829667
March-11-2020,6407 SE 72nd Ave,97206,315000,3,1.5,MT SCOTT,1368,3920,1913,162,230,0,45.4766673,-122.589628
May-21-2020,3266 NE Emerson St,97211,435333,2,1,ALBERTA,1368,4356,1909,91,318,0,45.5613438,-122.6312834
March-16-2020,8365 N Bank St,97203,350000,3,1.5,PORTLAND NORTH,1370,3920,2002,157,255,0,45.600069,-122.7475549
August-7-2020,6448 NE Killingsworth Ct,97218,348000,3,2,PORTLAND NORTHEAST,1370,2178,2009,13,254,49,45.5619223,-122.5971154
May-1-2020,7215 SE 68th Ave,97206,307000,3,2,PORTLAND SOUTHEAST,1371,4791,1958,111,224,0,45.4707923,-122.593503
June-12-2020,8812 N Haven Ave,97203,445000,3,2,PORTSMOUTH,1372,4791,1907,69,324,0,45.586172,-122.7181079
June-26-2020,5725 SE Lambert St,97206,415000,3,2,BRENTWOOD,1372,4791,1925,55,302,0,45.4674671,-122.6041926
July-10-2020,5003 NE Mason St,97218,495000,3,2,CULLY,1372,9147,1997,41,361,0,45.5526502,-122.6111993
March-25-2020,7515 NE Prescott St,97218,395000,3,2,PORTLAND NORTHEAST,1372,6098,1939,148,288,0,45.5556301,-122.5852587
April-27-2020,240 SE 93rd Ave,97216,380000,3,1.5,PORTLAND SOUTHEAST,1373,6969,1956,115,277,0,45.5205747,-122.567703
May-7-2020,7006 N Haight Ave,97217,410000,2,1,PIEDMONT,1374,4791,1946,105,298,0,45.57346,-122.6695085
May-4-2020,5534 SE Malden St,97206,256000,1,1,BRENTWOOD,1375,4791,1918,108,186,0,45.4677732,-122.6057694
July-29-2020,3320 N Arlington Pl,97217,425000,3,2.5,KENTON,1376,2613,2009,22,309,0,45.5831333,-122.7011593
May-18-2020,7023 SE 72nd Ave,97206,425000,3,2,BRENTWOOD,1377,7405,1908,94,309,0,45.4719085,-122.5896258
July-21-2020,4406 NE 47th Ave,97218,525000,2,2,PORTLAND NORTHEAST,1377,7405,1923,30,381,0,45.5547935,-122.6146516
June-22-2020,4932 NE Buffalo St,97218,238888,3,2,PORTLAND NORTHEAST,1378,13939,1926,59,173,0,45.5750823,-122.6117377
July-7-2020,631 SE 119th Ave,97216,299000,3,2,MILL PARK,1379,4791,1938,44,217,0,45.5178208,-122.5406939
May-5-2020,5437 SE Boise St,97206,484000,3,2,CRESTON,1379,4356,1905,107,351,0,45.4926209,-122.6063551
March-13-2020,2824 NE 62nd Ave,97213,452000,2,1,ROSE CITY,1380,4791,1922,160,328,0,45.5433941,-122.599143
July-8-2020,1618 SE Ellis St,97202,462000,2,1,SELLWOOD,1381,3049,1910,43,335,0,45.4821744,-122.6491278
March-16-2020,2114 NE 57th Ave,97213,449000,3,2,PORTLAND NORTHEAST,1382,4791,1926,157,325,0,45.5379613,-122.6043101
March-20-2020,11763 SE Main St,97216,405000,3,2,VENTURA PARK,1383,3920,2020,153,293,0,45.5142711,-122.5414895
April-1-2020,11775 SE Main St,97216,405000,3,2,VENTURA PARK,1383,3920,2020,141,293,0,45.514297,-122.541696
July-14-2020,71 NE Tillamook St,97212,578050,4,2,ALBINA,1383,3920,1890,37,418,0,45.5382177,-122.6647828
July-9-2020,5118 SE Ogden St,97206,375000,3,2.5,PORTLAND SOUTHEAST,1384,2613,2004,42,271,0,45.4709854,-122.6106402
June-23-2020,834 NE Shaver St,97212,322000,3,1,KING,1386,1742,1911,58,232,0,45.5518969,-122.6568338
August-13-2020,5926 NW Saltzman Rd,97210,455000,3,2.5,FOREST PARK,1389,5227,2013,7,328,0,45.5638243,-122.7483262
August-6-2020,4122 SE 66th Ave,97206,399900,2,1,PORTLAND SOUTHEAST,1390,3920,1922,14,288,0,45.4925976,-122.5950008
August-5-2020,2619 N Terry St,97217,505000,3,2,KENTON,1390,4791,1950,15,363,0,45.5800157,-122.6939758
March-2-2020,414 N Rosa Parks Way,97217,385000,2,1,PORTLAND NORTH,1392,3049,1927,171,277,0,45.5697467,-122.6705682
August-7-2020,8016 SE 80th Pl,97206,299950,2,2.5,PORTLAND SOUTHEAST,1392,2613,2008,13,215,0,45.4654224,-122.5809089
March-16-2020,6738 NE 22nd Ave,97211,347500,2,1,DEKUM TRIANGLE,1393,4356,1947,157,249,0,45.5717392,-122.6431645
June-8-2020,8827 N Calvert Ave,97217,420000,2,2,PORTLAND NORTH,1395,4791,1914,73,301,0,45.5865157,-122.6964233
July-1-2020,8349 N Foss Ave,97203,429000,3,2,PORTSMOUTH,1396,5662,1979,50,307,0,45.5837335,-122.7104778
March-10-2020,4022 SE 70th Ave,97206,475000,3,2,FOSTER,1396,6098,1951,163,340,0,45.4934041,-122.5909367
June-25-2020,7655 SE Lincoln St,97215,497500,2,1,TABOR,1396,5662,1940,56,356,0,45.5080605,-122.5841273
August-12-2020,2103 SE Tenino St,97202,511250,3,2,PORTLAND SOUTHEAST,1398,4000,1910,8,366,0,45.4637714,-122.6428926
March-19-2020,9034 N Portsmouth Ave,97203,345000,2,1,PORTSMOUTH,1400,5227,1942,154,246,0,45.5885534,-122.7207241
April-30-2020,7236 SE Salmon St,97215,511000,2,1.5,MT TABOR,1403,6098,1952,112,364,0,45.5142626,-122.5882343
April-28-2020,2126 N Sumner St,97217,460000,2,1.5,OVERLOOK,1404,4791,1945,114,328,0,45.560358,-122.6891978
March-24-2020,921 N Stafford St,97217,423500,3,2.5,PIEDMONT,1406,2613,2008,149,301,0,45.5767023,-122.6768818
July-2-2020,5021 SE Henry St,97206,452397,3,2,PORTLAND SOUTHEAST,1407,4791,1961,49,322,0,45.476521,-122.6108783
May-12-2020,7952 SE 75th Pl,97206,332000,3,2,PORTLAND SOUTHEAST,1407,10454,1951,100,236,0,45.4655548,-122.5858865
July-30-2020,3709 SE 60th Ave,97206,449900,3,2,FOSTER,1408,1408,1925,21,320,0,45.4958143,-122.6020173
July-28-2020,3909 SE Bybee Blvd,97202,475000,3,2.5,PORTLAND SOUTHEAST,1409,1742,2004,23,337,0,45.4725843,-122.6223817
July-24-2020,34 SE 78th Ave,97035,410000,2,1,MONTAVILLA,1410,4791,1907,27,291,0,45.5222644,-122.5832427
July-30-2020,8814 N Seward Ave,97217,527000,4,2,KENTON,1415,7405,1963,21,372,0,45.5866465,-122.7044811
April-9-2020,6405 SE Tibbetts St,97206,520000,3,2,SOUTH TABOR,1416,5227,1949,133,367,0,45.5003929,-122.5973271
March-24-2020,7621 SE Crystal Springs Blvd,97206,356900,3,2.5,PORTLAND SOUTHEAST,1416,5662,2003,149,252,0,45.4655595,-122.5849733
August-12-2020,7290 NE 13th Ave,97211,445000,3,2,WOODLAWN,1416,3920,2017,8,314,0,45.5758584,-122.6514961
August-7-2020,3306 NE 55th Ave,97213,515000,2,2,ROSE CITY,1418,4791,1925,13,363,0,45.5470604,-122.6063143
June-8-2020,3140 SW Fairview Blvd,97205,438700,2,1,ARLINGTON HEIGHTS,1419,4356,1968,73,309,0,45.5194412,-122.7141811
April-16-2020,2936 NE 77th Ave,97213,375000,1,1,ROSEWAY,1420,4791,1921,126,264,0,45.5439622,-122.5837681
March-31-2020,9223 N Macrum Ave,97203,367000,3,2.5,ST JOHNS,1422,2613,2008,142,258,0,45.5902817,-122.7322625
May-14-2020,3273 N Arlington Pl,97217,386000,3,2.5,KENTON,1423,2178,2005,98,271,0,45.5835164,-122.7004786
July-21-2020,5025 SE Tibbetts St,97206,391000,3,2,RICHMOND,1424,4791,1950,30,275,0,45.500438,-122.6104115
April-17-2020,3343 NE 74th Ave,97213,361000,3,1,ROSEWAY,1428,4791,1951,125,253,0,45.5470714,-122.5871235
May-5-2020,5257 NE 47th Ave,97218,425000,2,2,CULLY,1429,4791,1948,107,297,0,45.5613836,-122.6144536
May-8-2020,7808 SE Flavel St,97206,350000,2,2.5,PORTLAND SOUTHEAST,1432,7840,1966,104,244,0,45.4684578,-122.5830922
April-22-2020,2218 SE 44th Ave,97215,525000,4,2,RICHMOND,1433,4791,1898,120,366,0,45.50727,-122.6169429
June-22-2020,804 SE 38th Ave,97214,402000,2,1,SUNNYSIDE,1434,2613,1924,59,280,0,45.516999,-122.624245
July-1-2020,8903 SE Taylor St,97216,361380,3,2,MONTAVILLA,1436,4356,1944,50,252,0,45.5156554,-122.5720165
June-30-2020,5906 NE 32nd Pl,97211,468500,2,1,CONCORDIA,1437,4791,1923,51,326,0,45.5654443,-122.6314808
April-15-2020,4021 N Juneau St,97203,379000,4,2,PORTLAND NORTH,1440,6098,1985,127,263,0,45.5912089,-122.7083512
July-20-2020,8414 N Foss Ave,97203,420000,2,1,PORTLAND NORTH,1440,3920,1944,31,292,0,45.5843482,-122.7100058
March-30-2020,4515 N Willis Blvd,97203,422500,3,1,PORTLAND NORTH,1440,4791,1944,143,293,0,45.584332,-122.713917
July-31-2020,1423 NE 72nd Ave,97213,255000,2,1,MONTAVILLA,1440,6098,1945,20,177,0,45.5332138,-122.5889564
August-14-2020,2936 SE 77th Ave,97206,399960,3,1,SOUTH TABOR,1440,4791,1944,6,278,0,45.5007517,-122.583648
May-13-2020,1605 SE 49th Ave,97215,432500,2,1,HAWTHORNE,1440,4356,1924,99,300,0,45.5111611,-122.6124503
August-7-2020,6435 N Villard Ave,97217,467000,2,1,ARBOR LODGE,1440,4791,1950,13,324,0,45.5695897,-122.6978363
April-24-2020,6702 SE 65th Ave,97206,395000,3,1,BRENTWOOD,1440,9583,1915,118,274,0,45.4740929,-122.5958853
May-28-2020,6530 SE 43rd Ave,97206,415000,3,1,WOODSTOCK,1440,4791,1927,84,288,0,45.4753867,-122.6182728
July-22-2020,4629 NE 14th Pl,97211,519000,3,1,ALBERTA,1440,5227,1909,29,360,0,45.556871,-122.6509343
March-18-2020,5031 N Oberlin St,97203,460000,3,2,PORTSMOUTH,1441,3484,1935,155,319,0,45.5799549,-122.7216358
June-5-2020,6311 NE 11th Ave,97211,485000,4,2.5,WOODLAWN,1442,4791,1997,76,336,0,45.5685556,-122.6541315
July-24-2020,4911 SE Ramona St,97206,360000,4,1,WOODSTOCK,1444,4791,1908,27,249,0,45.4808526,-122.6119634
March-13-2020,8254 N Foss Ave,97203,469900,3,2.5,PORTSMOUTH,1445,2613,2020,160,325,0,45.5831605,-122.7099548
June-1-2020,6816 N Bank St,97203,405000,3,2.5,ST JOHNS,1445,2613,2020,80,280,0,45.596605,-122.7328162
February-28-2020,1722 NE 80 Ave,97213,405000,3,2.5,PORTLAND NORTHEAST,1445,2613,2020,174,280,0,45.5352647,-122.5809084
April-1-2020,1690 NE 80 Ave,97213,405000,3,2.5,PORTLAND NORTHEAST,1445,2613,2020,141,280,0,45.5350993,-122.5808523
March-30-2020,1698 NE 80 Ave,97213,400000,3,2.5,PORTLAND NORTHEAST,1445,2613,2019,143,277,0,45.5351343,-122.5808757
July-10-2020,1706 NE 80 Ave,97213,399900,3,2.5,PORTLAND NORTHEAST,1445,2613,2020,41,277,0,45.5351425,-122.58084
August-5-2020,8905 N Van Houten Ave,97203,430000,3,1,PORTLAND NORTH,1446,4791,1908,15,297,0,45.5867321,-122.7234142
May-11-2020,2521 N Winchell St,97217,411000,3,2.5,KENTON,1447,2613,2009,101,284,0,45.5807595,-122.6931009
February-28-2020,4755 N Oberlin St,97203,475000,3,2,PORTSMOUTH,1448,5227,1928,174,328,0,45.5784716,-122.7181475
June-26-2020,3646 SE Francis St,97202,351000,2,1,PORTLAND SOUTHEAST,1448,4791,1922,55,242,0,45.4945957,-122.6255923
August-3-2020,5104 NE 17th Ave,97211,420000,2,1,ALBERTA,1448,4791,1908,17,290,0,45.5597813,-122.6474977
May-12-2020,5133 NE 73rd Ave,97218,351000,3,1,CULLY,1451,7405,1942,100,242,0,45.5601589,-122.5880695
March-10-2020,6211 NE Sumner St,97218,395000,4,1,CULLY,1451,6098,1943,163,272,0,45.5598424,-122.5989919
March-6-2020,11635 SE Market St,97216,385000,3,2,PORTLAND SOUTHEAST,1452,6098,1951,167,265,0,45.5117322,-122.5431791
March-17-2020,3526 NE 12th Ave,97212,430000,2,1,PORTLAND NORTHEAST,1455,4791,1908,156,296,0,45.5486752,-122.6535559
April-3-2020,3816 NE 10th Ave,97212,425000,2,1,NORTH IRVINGTON,1455,3920,1903,139,292,0,45.5503445,-122.6554524
May-29-2020,3111 N Farragut St,97217,392900,2,1,PORTLAND NORTH,1456,4791,1927,83,270,0,45.5793324,-122.6982858
June-12-2020,7922 SE 76th Pl,97206,265000,3,1.5,PORTLAND SOUTHEAST,1456,7405,1981,69,182,0,45.4660331,-122.5845179
May-8-2020,6105 NE 16th Ave,97211,501000,3,2,WOODLAWN,1456,4791,1928,104,344,0,45.5670748,-122.6492522
March-20-2020,6147 NE 50th Ave,97218,385900,3,2.5,PORTLAND NORTHEAST,1456,5227,2001,153,265,0,45.5677055,-122.6118185
June-18-2020,7217 N Catlin Ave,97203,525000,4,2.5,ST JOHNS,1460,3484,1907,63,360,0,45.5944421,-122.7609532
June-17-2020,8917 N Dwight Ave,97203,324900,3,2.5,PORTLAND NORTH,1460,2613,2007,64,223,98,45.5871118,-122.7146175
April-29-2020,1239 NE 52nd Ave,97213,450000,2,1,ROSE CITY,1460,5662,1922,113,308,0,45.5318354,-122.6103599
March-13-2020,6837 N Montana Ave,97217,540000,2,1,ARBOR LODGE,1461,7405,1926,160,370,0,45.5723929,-122.6801286
June-26-2020,6743 N Princeton St,97203,435000,2,1,PORTSMOUTH,1463,4791,1952,55,297,0,45.5831107,-122.7380488
June-1-2020,8112 SE Taylor St,97215,375000,3,2.5,MONTAVILLA,1464,2613,2015,80,256,0,45.515292,-122.5798656
May-1-2020,6903 SE Mitchell St,97206,407000,3,1,FOSTER,1464,4791,1908,111,278,0,45.4857294,-122.5920901
April-3-2020,7906 N Wall Ave,97203,288000,2,1,PORTSMOUTH,1466,4791,1925,139,196,0,45.5859632,-122.7282748
June-17-2020,6817 N Armour St,97203,319900,2,1,ST JOHNS,1470,4791,1925,64,218,0,45.59852,-122.7328967
May-22-2020,8236 N Woolsey Ave,97203,405000,2,2,PORTSMOUTH,1472,4791,1927,90,275,0,45.5829354,-122.71322
July-9-2020,9425 N Geneva Ave,97203,440000,3,1,PORTSMOUTH,1472,4356,1956,42,299,0,45.5909765,-122.7275369
March-3-2020,3121 NE 31st Ave,97212,540000,3,3,ALAMEDA,1472,3049,1925,170,367,0,45.5456439,-122.6339945
May-8-2020,4021 SE 29 Ave,97202,360000,2,1,CRESTON,1472,1472,1900,104,245,0,45.4936801,-122.6358929
April-17-2020,5322 NE 18th Ave,97211,645300,3,2,ALBERTA,1472,3049,2000,125,438,0,45.5619473,-122.6465129
May-28-2020,2214 NE Flanders St,97232,356500,2,1,PORTLAND NORTHEAST,1474,4791,1923,84,242,0,45.5255278,-122.6430367
June-30-2020,947 NE 74th Ave,97213,435000,3,2.5,PORTLAND NORTHEAST,1476,1476,2020,51,295,0,45.5297797,-122.5870513
May-18-2020,6903 SE Cora St,97206,360000,4,2,FOSTER,1476,3920,1909,94,244,0,45.4918788,-122.5922414
March-16-2020,6035 SE Knight St,97206,360000,3,1.5,MT SCOTT,1476,4791,1928,157,244,0,45.4802337,-122.6011934
June-5-2020,302 SE 111th Ave,97216,405000,3,2.5,HAZELWOOD,1478,7840,1960,76,274,8,45.5203714,-122.5490435
July-2-2020,8606 N Endicott Ave,97217,395000,3,2.5,KENTON,1478,2613,2004,49,267,0,45.5851964,-122.7011435
May-12-2020,2425 SE Taggart St,97202,530000,3,2,HOSFORD ABERNETHY,1478,4791,1910,100,359,0,45.5028687,-122.6410235
July-6-2020,9619 N Kalmar St,97203,418200,3,2.5,ST JOHNS,1479,2613,2020,45,283,0,45.5997457,-122.7509918
July-10-2020,9629 N Kalmar St,97203,419000,3,2.5,ST JOHNS,1479,2613,2020,41,283,0,45.599952,-122.751172
July-17-2020,5467 N Cecelia St,97203,433500,3,3,PORTSMOUTH,1479,1479,2019,34,293,0,45.5929033,-122.7227151
March-5-2020,8358 N Fowler Ave,97217,475999,3,3,KENTON,1479,3049,2019,168,322,0,45.5836785,-122.7066083
June-17-2020,8036 SE Carlton St,97206,375200,3,2,MT SCOTT,1480,3920,1909,64,254,0,45.4780609,-122.580676
July-2-2020,3143 NE Oregon St,97232,630000,3,2,LAURELHURST,1481,4791,1977,49,425,0,45.5288164,-122.6318668
April-22-2020,3635 SE 69th Ave,97206,375000,2,2,FOSTER,1485,3920,1906,120,253,0,45.4957971,-122.59244
April-23-2020,1504 SE Ogden St,97202,500000,3,2,SELLWOOD,1485,5227,1926,119,337,0,45.4720513,-122.6507422
April-6-2020,4823 NE Mallory Ave,97211,474900,3,2.5,WILLIAMS,1485,2613,2004,136,320,0,45.5580042,-122.6639552
July-2-2020,1233 NE 52nd Ave,97213,410000,3,1,ROSE CITY,1486,5662,1954,49,276,0,45.5317289,-122.6104361
March-26-2020,1407 N Russet St,97217,430000,3,2,KENTON,1488,4791,1927,147,289,0,45.5781005,-122.6812154
July-30-2020,6211 NE 50th Ave,97218,346000,3,2.5,PORTLAND NORTHEAST,1488,3049,2004,21,233,0,45.5678434,-122.6117291
March-5-2020,4922 NE Holman St,97218,360000,3,2.5,CULLY,1488,3049,2004,168,242,0,45.5680116,-122.6117103
May-21-2020,4448 SE Evergreen St,97206,495500,3,2.5,BRENTWOOD,1489,1489,2020,91,333,0,45.4731139,-122.6163919
August-5-2020,8756 N Chautauqua Blvd,97217,520000,3,2,KENTON,1491,6969,1961,15,349,0,45.5859128,-122.706382
July-10-2020,9455 N Richmond Ave,97203,330000,2,1,ST JOHNS,1496,4791,1910,41,221,0,45.5958201,-122.747479
May-8-2020,8606 N Gloucester Ave,97203,350000,2,1,PORTSMOUTH,1500,3920,1910,104,233,0,45.5850969,-122.7209746
June-25-2020,6626 N Fenwick Ave,97217,479410,3,2,ARBOR LODGE,1500,4791,1926,56,320,0,45.571231,-122.6850253
February-27-2020,1102 N Winchell St,97217,333900,1,1,PIEDMONT,1502,2613,1910,175,222,0,45.580515,-122.6777605
June-25-2020,5630 SE Francis St,97206,367500,2,1,FOSTER,1503,3920,1922,56,245,0,45.4946073,-122.604508
June-5-2020,8449 SE Taylor St,97216,380000,3,2,MONTAVILLA,1504,4791,1916,76,253,0,45.5156476,-122.576059
June-30-2020,3324 NE 55th Ave,97213,488000,2,1,PORTLAND NORTHEAST,1504,4791,1925,51,324,0,45.547345,-122.606324
July-7-2020,1328 NE 76th Ave,97213,440000,3,2.5,MONTAVILLA,1505,2178,2020,44,292,0,45.532586,-122.584555
August-19-2020,3234 NE 77th Ave,97213,452500,3,2,PORTLAND NORTHEAST,1505,4791,1919,1,301,0,45.5459361,-122.5836349
May-22-2020,8605 N Dana Ave,97203,405000,4,1,PORTSMOUTH,1506,4791,1948,90,269,0,45.5848995,-122.7126157
August-14-2020,3516 NE 78th Ave,97213,462000,2,2,PORTLAND NORTHEAST,1506,4791,1921,6,307,0,45.5484596,-122.5825215
July-17-2020,7517 NE Irving St,97213,399900,3,2.5,PORTLAND NORTHEAST,1506,2613,2007,34,266,0,45.5280443,-122.5853036
June-10-2020,8121 SE Madison St,97215,365000,3,2.5,PORTLAND SOUTHEAST,1506,2178,2006,71,242,0,45.5130536,-122.5796802
March-20-2020,2509 N Halleck St,97217,458000,3,2.5,KENTON,1507,2613,2018,153,304,0,45.5828491,-122.6927818
July-30-2020,7400 N Lancaster Ave,97217,510000,3,2.5,ARBOR LODGE,1507,2613,2020,21,338,0,45.5765236,-122.6883008
April-23-2020,2335 NE 53rd Ave,97213,430000,2,1,ROSE CITY,1508,4791,1923,119,285,0,45.5395795,-122.6091446
July-9-2020,808 NE 73rd Ave,97213,415000,3,1,MONTAVILLA,1512,4791,1952,42,274,0,45.528359,-122.5875649
March-13-2020,4821 SE Grant St,97215,449900,2,1,PORTLAND SOUTHEAST,1512,6534,1922,160,298,0,45.5075751,-122.6127476
August-13-2020,6813 N Seneca St,97203,385000,3,2.5,ST JOHNS,1513,2613,2006,7,254,0,45.5918744,-122.7336171
February-28-2020,9530 N Exeter Ave,97203,440000,3,2.5,ST JOHNS,1516,2613,2012,174,290,0,45.5918261,-122.7217836
May-13-2020,5316 NE 60th Ave,97218,335000,1,1,PORTLAND NORTHEAST,1516,8712,1928,99,221,0,45.561938,-122.6005383
March-31-2020,6245 SE Cooper St,97206,407000,3,2.5,BRENTWOOD,1517,2613,2019,142,268,0,45.4736427,-122.5990071
March-27-2020,6263 SE Cooper St,97206,400000,3,2.5,BRENTWOOD,1517,2613,2019,146,264,0,45.4736139,-122.5988275
July-31-2020,6718 SE Henry St,97206,460000,3,2.5,WOODSTOCK,1518,3484,2002,20,303,0,45.4766174,-122.5940208
February-28-2020,6444 NE Going St,97218,415000,3,2,PORTLAND NORTHEAST,1518,6969,1963,174,273,0,45.5565839,-122.5964541
June-15-2020,4205 SE Knight St,97206,425000,2,1,WOODSTOCK,1520,4791,1953,66,280,0,45.4800974,-122.6192956
June-9-2020,320 NE 75th Ave,97213,440000,3,1,MT TABOR,1522,4791,1913,72,289,0,45.5250275,-122.5855537
April-24-2020,6514 NE 26th Ave,97211,355000,2,1,CONCORDIA,1522,4791,1923,118,233,0,45.5700935,-122.6389267
April-23-2020,10126 N Calhoun Ave,97203,369900,3,1,ST JOHNS,1523,4791,1921,119,243,0,45.5966464,-122.7379577
July-16-2020,2305 N Dekum St,97217,507500,3,1.5,ARBOR LODGE,1524,5662,1927,35,333,0,45.5719048,-122.6906852
June-26-2020,9101 N Drummond Ave,97217,370000,3,2.5,KENTON,1524,2613,2004,55,243,0,45.5886797,-122.6997175
August-17-2020,10224 N Allegheny Ave,97203,375000,3,1,PORTLAND NORTH,1525,4791,1911,3,246,0,45.598667,-122.7422108
July-7-2020,6092 SE Woodstock Blvd,97206,469900,3,3.5,MT SCOTT,1526,1526,1952,44,308,26,45.4789447,-122.6008106
May-27-2020,911 SE 90th Ave,97216,385000,3,2.5,PORTLAND SOUTHEAST,1529,1742,2007,85,252,0,45.5164172,-122.5715923
February-27-2020,9629 N Berkeley Ave,97203,403500,3,2.5,PORTSMOUTH,1531,2613,2020,175,264,0,45.592474,-122.725613
June-10-2020,4820 SE Kelly St,97206,580000,3,2,RICHMOND,1531,1531,1909,71,379,0,45.4994379,-122.6131852
July-6-2020,9102 N Richmond Ave,97203,415000,3,2.5,ST JOHNS,1532,2613,2004,45,271,0,45.5928955,-122.748377
March-5-2020,6505 N Knowles Ave,97217,442500,2,1,ARBOR LODGE,1532,5662,1943,168,289,0,45.5702621,-122.699588
July-8-2020,6625 N Fenwick Ave,97217,550000,3,2,ARBOR LODGE,1532,4791,1926,43,359,0,45.5711926,-122.685562
February-28-2020,1334 NE Prescott St,97211,535000,2,2,PORTLAND NORTHEAST,1532,4791,1926,174,349,0,45.5552777,-122.651961
March-30-2020,2109 SE 118th Ave,97216,311000,3,1,PORTLAND SOUTHEAST,1533,6534,1952,143,203,0,45.507681,-122.5421101
April-13-2020,2142 SE 118th Ave,97216,373500,4,2,PORTLAND SOUTHEAST,1535,6534,1952,129,243,0,45.5071691,-122.5415276
May-15-2020,6311 N Vancouver Ave,97217,450000,2,1,PIEDMONT,1535,5227,1925,97,293,0,45.5680081,-122.66919
April-30-2020,1117 SE Umatilla St,97202,494000,3,2,SELLWOOD,1535,4791,1893,112,322,0,45.4630336,-122.6545486
March-19-2020,8034 SE 42nd Ave,97206,479900,4,2,WOODSTOCK,1536,3484,1940,154,312,0,45.4652483,-122.6191465
June-8-2020,9434 N Haven Ave,97203,362000,4,2.5,PORTLAND NORTH,1540,2613,2006,73,235,101,45.5908147,-122.7176571
July-23-2020,6617 SE 69th Ave,97206,410000,4,2.5,BENTWOOD DARLINGTON,1540,4356,2006,28,266,0,45.4747194,-122.5925131
June-2-2020,3218 S Water Ave,97239,408700,4,1,RALEIGH HILLS,1542,3484,1910,79,265,0,45.4997787,-122.676592
July-15-2020,3330 NE 75th Ave,97213,495000,3,2.5,ROSEWAY,1543,2613,2016,36,321,0,45.5469087,-122.5856971
July-2-2020,3712 SE 67th Ave Unit A,97206,499900,3,2.5,FOSTER,1544,1544,2020,49,324,50,45.495479,-122.593968
May-15-2020,7735 SE 66th Pl,97206,365000,3,2,BRENTWOOD,1544,4791,1947,97,236,0,45.4676155,-122.5950986
March-26-2020,9415 N Willamette Blvd,97203,466000,2,1,CATHEDRAL PARK,1546,7405,1947,147,301,0,45.5935583,-122.7615239
June-15-2020,4325 N Mississippi Ave,97217,550000,3,1,MISSISSIPI,1546,4791,1920,66,356,0,45.555191,-122.67582
July-24-2020,6845 SE Knight St,97206,405000,3,2.5,MT SCOTT,1546,4791,1997,27,262,0,45.480307,-122.592219
June-24-2020,7524 SE 20th Ave,97202,560000,3,2,WESTMORELAND,1547,4791,1924,57,362,0,45.4706453,-122.6441432
July-27-2020,6111 NE 49th Ave,97218,510000,4,2.5,CULLY,1547,4791,2000,24,330,0,45.5671502,-122.6125263
June-18-2020,4145 SE Reedway St,97202,560000,3,2,WOODSTOCK,1548,6969,1983,63,362,0,45.4815556,-122.6195166
March-9-2020,8135 N Druid Ave,97203,437500,4,2,PORTLAND NORTH,1549,4791,1982,164,282,0,45.583387,-122.7177105
March-20-2020,8835 N Bayard Ave,97217,390000,3,2.5,KENTON,1549,2613,2005,153,252,0,45.5867772,-122.7007394
July-28-2020,8315 SE 64th Ave Unit A,97206,395000,2,1.5,BRENTWOOD,1549,1549,2019,23,255,66,45.463466,-122.597882
June-18-2020,3305 N Arlington Pl,97217,451000,3,2.5,KENTON,1550,4356,2002,63,291,0,45.5834729,-122.7009025
April-6-2020,8875 N Wilbur Ave,97217,390000,4,2.5,PORTLAND NORTH,1550,2613,2001,136,252,0,45.587161,-122.69446
April-17-2020,5536 N Campbell Ave,97217,287197,3,1,PORTLAND NORTH,1550,3920,1910,125,185,0,45.5632605,-122.6861769
February-26-2020,1184 SE 86th Ave,97216,386000,3,2.5,PORTLAND SOUTHEAST,1552,2613,2010,176,249,0,45.514289,-122.574802
August-17-2020,914 NE Portland Boulevard Ct,97211,570000,3,2,PORTLAND NORTHEAST,1552,3920,1926,3,367,0,45.5694341,-122.6557547
April-2-2020,2817 NE Weidler St,97232,595000,6,3,PORTLAND NORTHEAST,1553,4791,1923,140,383,0,45.5346378,-122.6362755
June-12-2020,3810 NE 64th Ave,97213,453000,2,1,ROSEWAY,1554,4791,1926,69,292,0,45.5505143,-122.5970539
July-24-2020,4515 NE 19th Ave,97211,650000,4,2.5,ALBERTA,1554,3049,2008,27,418,0,45.5557042,-122.646104
July-24-2020,5608 SE Liebe St,97206,462500,4,2.5,WOODSTOCK,1556,4356,2005,27,297,0,45.4871131,-122.6056073
August-10-2020,4429 NE 78th Ave,97218,422400,2,1,PORTLAND NORTHEAST,1556,4791,1940,10,271,0,45.5549999,-122.5830181
May-5-2020,811 N Watts St,97217,383000,2,1,PIEDMONT,1558,4791,1939,107,246,0,45.5815188,-122.674662
July-9-2020,7716 N Mckenna Ave,97203,430000,2,1,PORTLAND NORTH,1560,4791,1941,42,276,0,45.5849176,-122.7272684
April-28-2020,1325 NE 79th Ave,97213,268000,2,1,PORTLAND NORTHEAST,1560,4791,1926,114,172,0,45.5325509,-122.5821595
August-18-2020,603 NE 61st Ave,97213,351600,3,1,PORTLAND NORTHEAST,1560,3484,1908,2,225,0,45.527324,-122.6014699
August-3-2020,7009 NE Stanton St,97213,510000,4,2,ROSEWAY,1560,3920,1927,17,327,0,45.5438023,-122.5897982
May-29-2020,1550 N Webster St,97217,525000,4,2,PORTLAND NORTH,1560,4791,1952,83,337,0,45.5596486,-122.6834583
July-31-2020,3505 SE 16th Ave,97202,550000,3,2,BROOKLYN,1560,4791,1922,20,353,0,45.4973151,-122.6495476
May-18-2020,5636 SE Flavel St,97206,371000,3,1,BRENTWOOD,1560,4791,1925,94,238,0,45.4684595,-122.6050025
June-24-2020,4216 NE 22nd Ave,97211,550000,3,2,PORTLAND NORTHEAST,1560,4791,1950,57,353,0,45.5539211,-122.6426838
June-18-2020,952 NE Winona St,97211,447500,4,2,WOODLAWN,1560,4791,1973,63,287,0,45.5711603,-122.6543473
June-8-2020,5205 NE 32nd Ave,97211,530900,3,2,ALBERTA,1560,3920,1907,73,340,0,45.5604454,-122.6330944
March-16-2020,2732 NE Wasco St,97232,525000,3,1.5,PORTLAND NORTHEAST,1564,3484,1989,157,336,0,45.5319303,-122.6374153
June-18-2020,3442 NE 67th Ave,97213,434000,2,1,ROSEWAY,1568,4791,1926,63,277,0,45.5480576,-122.5940356
June-29-2020,5511 SE 57th Ave,97206,340000,4,2,PORTLAND SOUTHEAST,1568,4356,1961,52,217,0,45.4828461,-122.6049601
June-10-2020,9133 NE 16th Ct,97211,389900,3,2,BLUE HERON MEADOWS,1568,6098,1999,71,249,0,45.5916682,-122.6488975
July-22-2020,9437 NE Blue Heron Ct,97211,385000,3,2,BLUE HERON MEADOWS,1568,8276,2000,29,246,0,45.5916053,-122.6449822
June-16-2020,5331 NE Church St,97218,409000,3,2.5,PORTLAND NORTHEAST,1568,7840,1976,65,261,0,45.5636651,-122.6079951
February-28-2020,6722 NE Alberta St,97218,460000,3,2,PORTLAND NORTHEAST,1568,9147,1945,174,293,0,45.5588656,-122.59356
May-4-2020,107 NE 79th Ave,97213,475000,3,2,MONTAVILLA,1569,3920,1890,108,303,0,45.5235205,-122.5826533
May-8-2020,5145 NE Jarrett St,97218,342000,3,2,CULLY,1569,7840,1970,104,218,0,45.5644177,-122.6092419
February-24-2020,9327 N Richmond Ave,97203,438500,3,2.5,ST JOHNS,1570,2613,2019,178,279,0,45.5947021,-122.7480777
June-1-2020,4424 N Willis Blvd,97203,530000,3,2,PORTSMOUTH,1570,5227,1932,80,338,0,45.5838252,-122.7130127
July-17-2020,8111 N Washburne Ave,97217,431000,3,1,KENTON,1570,2613,1942,34,275,0,45.5821195,-122.7056321
March-11-2020,7624 N Williams Ave,97217,470000,2,1,PIEDMONT,1572,4791,1942,162,299,0,45.5783562,-122.6665566
March-19-2020,5324 NE Webster Ct,97218,538500,3,2,CULLY,1575,7405,1973,154,342,0,45.5596193,-122.6085612
July-6-2020,9333 SE Madison St,97216,394500,4,2,PORTLAND SOUTHEAST,1576,6098,2003,45,250,0,45.5131949,-122.5667672
August-10-2020,3939 SE 36th Ave,97202,545000,3,2.5,CRESTON,1576,2613,2017,10,346,0,45.4944452,-122.626959
May-15-2020,7190 SE 50th Ave,97206,581406,3,2.5,BRENTWOOD,1577,1577,2020,97,369,0,45.4712582,-122.6117802
March-16-2020,4345 NE 36th Ave,97211,460000,2,1,WILSHIRE PARK,1577,4791,1941,157,292,0,45.5544004,-122.6268431
July-31-2020,3404 NE 75th Ave,97213,355000,2,1,ROSEWAY,1584,4791,1910,20,224,0,45.5473467,-122.5856509
June-29-2020,1016 N Simpson St,97217,426500,4,2,PORTLAND NORTH,1584,2613,1921,52,269,0,45.565395,-122.6773406
March-19-2020,1534 SE Claybourne St,97202,560000,3,2,SELLWOOD,1584,2613,1926,154,354,0,45.4749659,-122.650229
April-10-2020,6211 SE 44th Ave,97206,530000,4,2,WOODSTOCK,1584,4791,1931,132,335,0,45.4774522,-122.6177497
July-23-2020,4326 NE 69th Ave,97218,467000,3,2,PORTLAND NORTHEAST,1584,4791,1924,28,295,0,45.5543118,-122.5919887
April-29-2020,1430 NE Euclid Ave,97213,463000,2,1,PORTLAND NORTHEAST,1586,6534,1925,113,292,0,45.5332862,-122.6139174
April-13-2020,3133 NE Cesar E Chavez Blvd,97212,635000,2,2,ALAMEDA,1586,3049,1925,129,400,0,45.5459777,-122.6230942
August-11-2020,8114 NE Failing St,97213,397000,3,2.5,PORTLAND NORTHEAST,1587,1587,2020,9,250,0,45.550846,-122.5792599
June-23-2020,3018 N Trenton St,97217,370000,3,1,KENTON,1588,5662,1911,58,233,0,45.5884228,-122.6976639
April-16-2020,4327 NE Cleveland Ave,97211,411000,2,1,HUMBOLDT,1588,3484,1907,126,259,0,45.5550209,-122.6659493
April-3-2020,5425 NE Webster St,97218,481000,2,2,CULLY,1588,6969,1975,139,303,0,45.5599763,-122.6073165
June-1-2020,1737 SE Miller St,97202,385000,2,1,SELLWOOD,1590,5227,1924,80,242,0,45.4666161,-122.6461838
August-14-2020,5608 N Columbia Blvd,97203,401000,3,2,PORTLAND NORTH,1592,4356,1950,6,252,0,45.5941445,-122.7243725
April-28-2020,3635 NE 45th Ave,97213,569000,3,2,BEAUMONT,1592,4791,1925,114,357,0,45.5496814,-122.6173959
May-22-2020,4536 SE Boise St,97206,460000,2,1,CRESTON,1592,4791,1889,90,289,0,45.4925545,-122.6150661
August-17-2020,6417 N Vancouver Ave,97217,464200,2,1,PORTLAND NORTH,1592,4791,1940,3,292,0,45.5693022,-122.6691637
August-14-2020,7665 N Mississippi Ave,97217,442500,2,2,LOWER PIEDMONT,1592,4791,1942,6,278,0,45.5788992,-122.6765752
April-8-2020,1204 SE 34th Ave,97214,551000,2,1,SUNNYSIDE,1592,3049,1892,134,346,0,45.5141917,-122.6292944
August-5-2020,6650 SE 67th Ave,97206,420000,3,2.5,PORTLAND SOUTHEAST,1593,1593,2020,15,264,0,45.4742603,-122.5939154
July-24-2020,6670 SE 67th Ave,97206,415000,3,2.5,WOODSTOCK,1593,1593,2020,27,261,0,45.4741918,-122.5939154
July-17-2020,7003 N Columbia Way,97203,400000,2,1,PORTLAND NORTH,1596,4791,1926,34,251,0,45.5921047,-122.7364564
July-16-2020,6722 SE Boise St,97206,480000,3,1.5,FOSTER,1596,3920,1907,35,301,0,45.4922641,-122.5936364
June-30-2020,4759 N Amherst St,97203,430800,4,2,PORTLAND NORTH,1597,5662,1944,51,270,0,45.5758547,-122.7204003
March-10-2020,9738 N Syracuse St,97203,435000,3,1,PORTLAND NORTH,1597,4791,1905,163,272,0,45.5960344,-122.7634301
May-15-2020,7180 SE 50th Ave,97206,587314,3,2.5,BRENTWOOD,1598,1598,2020,97,368,0,45.4713281,-122.6117805
June-1-2020,1215 NE 80th Ave,97213,401000,3,2,MONTAVILLA,1600,4791,1944,80,251,0,45.531867,-122.5812143
May-1-2020,225 SE 74th Ave,97215,430000,3,2,MT TABOR,1600,4791,1965,111,269,0,45.5207592,-122.5870535
July-17-2020,7304 SE 78th Ave,97206,370000,3,1,BRENTWOOD,1600,4791,1949,34,231,0,45.4704554,-122.5827465
July-16-2020,6127 NE Milton St,97213,375000,2,1,ROSE CITY,1604,4791,1924,35,234,0,45.5490809,-122.6002523
June-30-2020,2525 SE 26th Ave,97202,512500,2,1,CLINTON,1604,3920,1924,51,320,0,45.5043872,-122.6399047
March-27-2020,1010 SE Umatilla St,97202,568500,3,2.5,SELLWOOD,1607,2613,2008,146,354,0,45.462738,-122.6557274
July-21-2020,1544 NE 49th Ave,97213,600000,3,2,ROSE CITY,1608,4791,1921,30,373,0,45.5344382,-122.6126281
May-29-2020,6534 SE 22nd Ave,97202,455000,3,1,WESTMORELAND,1608,4791,1928,83,283,0,45.4760286,-122.64281
April-10-2020,5724 NE Hancock St,97213,608000,3,2.5,ROSE CITY,1609,2613,2018,132,378,0,45.5364581,-122.6042327
March-10-2020,6940 N Montana Ave,97217,499000,2,1,PORTLAND NORTH,1612,7405,1926,163,310,0,45.573291,-122.679459
July-17-2020,4031 SE Crystal Springs Blvd,97202,322000,2,2,BERKELEY,1612,4791,1951,34,200,0,45.4651933,-122.6211458
May-8-2020,1442 SE Palm St,97214,528500,2,1,LADDS ADDITION,1612,3049,1925,104,328,0,45.5105325,-122.6504726
June-12-2020,8122 SE 74th Ave,97206,435000,4,2,PORTLAND SOUTHEAST,1613,8276,1950,69,270,0,45.4645729,-122.5871943
May-21-2020,735 NE Beech St,97212,517400,2,1,SABIN,1615,4791,1955,91,320,0,45.5496085,-122.6579442
July-31-2020,6217 SE 43rd Ave,97206,539000,3,2,WOODSTOCK,1618,3920,1927,20,333,0,45.4773666,-122.6187547
February-26-2020,5414 NE 28th Ave,97211,505000,2,1,ALBERTA,1618,3920,1922,176,312,0,45.5622421,-122.6366021
April-20-2020,11834 SE Pine St,97216,405000,3,2,PORTLAND SOUTHEAST,1620,4791,1938,122,250,0,45.5201969,-122.5409675
August-6-2020,133 SE 27th Ave,97214,505000,3,1,BUCKMAN,1620,4791,1928,14,312,0,45.5216113,-122.6385857
July-31-2020,5129 NE 25th Ave,97211,535000,2,1,ALBERTA,1620,3920,1914,20,330,0,45.5600795,-122.6401458
August-10-2020,7913 N Dwight Ave,97203,477000,3,1,PORTLAND NORTH,1628,5227,1928,10,293,0,45.5810947,-122.7148181
August-7-2020,4525 NE Halsey St,97213,397552,2,1,HOLLYWOOD,1630,4791,1924,13,244,0,45.5339366,-122.61638
March-26-2020,2105 SE 89th Ave,97216,385200,2,1,MONTAVILLA,1632,8276,1929,147,236,0,45.5074395,-122.5725758
June-23-2020,7505 SE 22nd Ave,97202,750000,3,2,PORTLAND SOUTHEAST,1632,4791,1925,58,460,0,45.4710179,-122.6426914
February-28-2020,3036 SE Cesar E Chavez Blvd,97202,400000,3,1,RICHMOND,1633,3049,1910,174,245,0,45.5006701,-122.622393
April-2-2020,9133 N Allegheny St,97203,454900,3,2.5,ST JOHNS,1635,1635,2019,140,278,0,45.5927269,-122.7458612
July-21-2020,1714 NE 60th Ave,97213,460800,2,2,ROSE CITY,1636,4791,1925,30,282,0,45.5352243,-122.6013043
July-30-2020,7125 SE Lafayette St,97206,369500,4,2.5,MARSHALL,1638,3049,2006,21,226,0,45.4965267,-122.5896753
June-10-2020,241 SE 55th Ave,97215,668000,3,2.5,MT TABOR,1638,6969,1997,71,408,0,45.5206702,-122.6077615
August-3-2020,3931 NE 42nd Ave,97213,485000,2,1,BEAUMONT,1638,6098,1923,17,296,0,45.5507958,-122.6206794
May-19-2020,6845 N Concord Ave,97217,494500,3,2,ARBOR LODGE,1638,4791,1949,93,302,0,45.5723824,-122.6845143
June-12-2020,8269 N Chautauqua Blvd,97217,345000,4,2,PORTSMOUTH,1638,5662,1941,69,211,0,45.5832179,-122.7082693
March-31-2020,2318 SE 72nd Ave,97215,456000,3,1,MT TABOR,1640,8712,1925,142,278,0,45.5059431,-122.5885692
August-7-2020,5922 SE Francis St,97206,441000,3,2,FOSTER,1640,3920,1910,13,269,0,45.4944191,-122.6021437
August-3-2020,1626 N Humboldt St,97217,525000,2,1,OVERLOOK,1640,5227,1924,17,320,0,45.5582097,-122.684097
June-29-2020,4137 SE 37th Ave,97202,517000,4,2,CRESTON,1642,3484,1913,52,315,0,45.4926955,-122.6248586
March-18-2020,229 N Baldwin St,97217,480000,3,2,PIEDMONT,1644,4791,1937,155,292,0,45.5788115,-122.6689871
April-20-2020,3732 NE 67th Ave,97213,318000,2,1,ROSEWAY,1646,4791,1927,122,193,0,45.5501757,-122.5939986
June-8-2020,6026 NE Multnomah St,97213,473000,4,2,PORTLAND NORTHEAST,1649,4791,1944,73,287,0,45.5314424,-122.6015671
April-30-2020,1424 NE 59th Ave,97213,449900,3,2,ROSE CITY,1650,4356,1940,112,273,0,45.5332873,-122.6028647
April-24-2020,3625 NE Killingsworth St,97211,400000,3,1,PORTLAND NORTHEAST,1652,4791,1927,118,242,0,45.5629423,-122.6259355
March-2-2020,6924 SE 66th Ave,97206,391000,2,2,PORTLAND SOUTHEAST,1654,1654,1923,171,236,0,45.4724672,-122.5949379
July-20-2020,8816 N Burrage Ave,97217,470000,3,2.5,KENTON,1656,2613,2017,31,284,0,45.5863221,-122.6948777
May-15-2020,2302 SE 37th Ave,97214,495000,3,1,PORTLAND SOUTHEAST,1656,2613,1908,97,299,0,45.5060536,-122.6254614
August-12-2020,6144 SE Duke St,97206,401000,3,2.5,PORTLAND SOUTHEAST,1656,2613,2014,8,242,0,45.4754241,-122.6000642
March-18-2020,8949 N Mckenna Ave,97203,400000,3,1,PORTSMOUTH,1657,4356,1912,155,241,0,45.5872881,-122.7266178
August-17-2020,3524 NE 79th Ave,97213,435000,3,1,ROSEWAY,1657,4791,1927,3,263,0,45.5485708,-122.5815302
April-8-2020,4825 SE Caruthers St,97215,471250,3,1,PORTLAND SOUTHEAST,1659,3920,1922,134,284,0,45.5061728,-122.6126703
June-4-2020,1744 NE Morgan St,97211,335000,2,1,WOODLAWN,1660,6534,1951,77,202,0,45.573909,-122.6474357
June-18-2020,5716 NE 22nd Ave,97211,615000,3,2.5,CONCORDIA,1661,1661,2020,63,370,0,45.5640357,-122.6431769
April-10-2020,5712 NE 22nd Ave,97211,624900,3,2.5,CONCORDIA,1661,2500,2020,132,376,0,45.563999,-122.6432517
March-3-2020,4323 SE Morrison St,97215,480000,2,2,BELMONT,1662,4356,1930,170,289,0,45.5174375,-122.6172256
July-24-2020,7083 N Burrage Ave,97217,570000,2,2,ARBOR LODGE,1662,4791,1927,27,343,0,45.5747936,-122.6947315
June-12-2020,8413 N Druid Ave,97203,431000,2,1,PORTSMOUTH,1663,4791,1902,69,259,0,45.5843935,-122.7176531
May-1-2020,1011 NE 73rd Ave,97213,459900,3,2.5,MONTAVILLA,1663,1663,2020,111,277,0,45.530021,-122.5880584
March-19-2020,3813 SE Raymond St,97202,488315,3,2.5,REEDWOOD,1663,5662,1999,154,294,0,45.4868927,-122.6232347
July-23-2020,305 N Morgan St,97217,472000,3,1.5,PIEDMONT,1664,4791,1929,28,284,0,45.574573,-122.6693738
April-30-2020,7731 SE Tolman St,97206,395000,3,1,MT SCOTT,1664,4791,1912,112,237,0,45.4777595,-122.5833852
May-13-2020,6323 NE Prescott St,97218,410000,3,2.5,PORTLAND NORTHEAST,1664,7405,2004,99,246,0,45.5560592,-122.5978385
June-24-2020,4215 NE 57th Ave,97218,442000,3,1,PORTLAND NORTHEAST,1664,7405,1947,57,266,0,45.5534415,-122.604644
May-11-2020,5225 SW Richardson Dr,97239,510000,3,2,HILLSDALE,1665,6969,1954,101,306,0,45.4849029,-122.7033701
March-27-2020,6644 NE 26th Ave,97211,530000,3,2,CONCORDIA,1665,4791,1947,146,318,0,45.5712033,-122.6389292
August-5-2020,7916 N Fessenden St,97203,345000,3,1,PORTLAND NORTH,1667,4356,1924,15,207,0,45.595472,-122.7445584
April-30-2020,1118 NE Killingsworth St,97211,400000,3,1,PORTLAND NORTHEAST,1668,4791,1925,112,240,0,45.5625671,-122.6536942
April-30-2020,6036 N Oberlin St,97203,476000,3,2,PORTLAND NORTH,1670,4791,1944,112,285,0,45.5828796,-122.7305683
March-10-2020,8675 N Burrage Ave,97217,465000,3,2.5,KENTON,1670,1670,2019,163,278,0,45.5853507,-122.6953005
July-10-2020,7216 SE 19th Ave,97202,586000,2,1.5,WESTMORELAND,1670,4791,1925,41,351,0,45.472532,-122.6452687
July-22-2020,6096 SE Woodstock Blvd,97206,459900,3,3.5,MT SCOTT,1670,1670,2020,29,275,26,45.4789486,-122.6008411
July-27-2020,8891 N Drummond Ave,97217,515000,3,2.5,KENTON,1671,2613,2017,24,308,0,45.5870004,-122.699768
July-24-2020,4210 NE 76th Ave,97218,479950,3,2.5,ROSEWAY,1672,2613,2020,27,287,0,45.5533158,-122.5844376
July-16-2020,2614 SW Fairmount Blvd,97239,686500,3,2.5,RALEIGH HILLS,1674,21344,1988,35,410,0,45.499977,-122.705426
June-15-2020,514 N Stafford St,97217,560000,4,2,PIEDMONT,1676,4791,1938,66,334,0,45.5763186,-122.671116
August-7-2020,3555 SE Harold Ct,97202,540000,2,2,REED,1678,7405,1950,13,322,0,45.4834068,-122.6265592
May-19-2020,3314 NE 15th Ave,97212,525000,3,2,PORTLAND NORTHEAST,1680,4791,1923,93,313,0,45.5469964,-122.6500551
April-27-2020,2758 NE Rodney Ave,97212,515000,3,3,BOISE,1680,1680,2013,115,307,0,45.5426672,-122.6638554
May-25-2020,6324 N Atlantic Ave,97217,596500,4,2,PORTLAND NORTH,1682,7405,1907,87,355,0,45.5686085,-122.69631
March-17-2020,3245 NE 57th Ave,97213,450000,2,1,BEAUMONT,1684,4791,1921,156,267,0,45.5467475,-122.6048507
August-12-2020,7745 SE 64th Ave,97206,443000,3,2,BRENTWOOD,1684,20473,1940,8,263,0,45.4673473,-122.5985043
March-20-2020,418 N Holland St,97217,447000,2,1.5,PIEDMONT,1686,4791,1938,153,265,0,45.5756158,-122.6703565
June-30-2020,4109 SE 63rd Ave,97206,505000,3,2,FOSTER,1687,3920,1906,51,299,0,45.4928627,-122.5986661
June-30-2020,1115 NE Jarrett St,97211,580000,3,2.5,VERNON,1687,2613,2016,51,344,0,45.5647186,-122.6536929
June-26-2020,7041 N Greenwich Ave,97217,499000,3,2.5,PORTLAND NORTH,1689,2613,2014,55,295,0,45.5741742,-122.6835464
June-25-2020,2806 SE 21st Ave,97202,608000,3,2,HOSFORD ABERNETHY,1689,2613,1908,56,360,0,45.5025095,-122.6443894
July-7-2020,45 NE Buffalo St,97211,452000,2,1,PIEDMONT,1690,4791,1941,44,267,0,45.5752717,-122.6658139
March-6-2020,7051 N Congress Ave,97217,440000,2,1,PIEDMONT,1691,4356,1937,167,260,0,45.5741516,-122.6720999
March-11-2020,5905 SE 62nd Ave,97206,415000,2,1,MT SCOTT,1691,7405,1923,162,245,0,45.479822,-122.599919
March-5-2020,3529 N Missouri Ave,97227,414000,2,1,PORTLAND NORTH,1694,2178,1886,168,244,0,45.5483051,-122.6779182
March-6-2020,4183 SE 62nd Ave,97206,514250,3,2.5,PORTLAND SOUTHEAST,1694,1694,2020,167,304,0,45.4921483,-122.5996515
April-24-2020,5111 N Bowdoin St,97203,385000,2,1,PORTLAND NORTH,1696,3484,1925,118,227,0,45.5808221,-122.721435
July-27-2020,6133 NE 13th Ave,97211,385000,2,1,PORTLAND NORTHEAST,1696,4791,1923,24,227,0,45.5675182,-122.6522339
March-2-2020,7916 N Seward Ave,97217,457000,3,3,KENTON,1698,4356,1928,171,269,0,45.580853,-122.7032945
May-19-2020,31 SE 89th Ave,97216,415000,4,2,MONTAVILLA,1700,4791,1969,93,244,0,45.5221872,-122.5721701
May-15-2020,5814 SE Francis St,97206,488500,2,1,FOSTER,1701,3920,1902,97,287,0,45.4944113,-122.6031954
July-15-2020,6622 SE Rhone St,97206,498000,3,2.5,PORTLAND SOUTHEAST,1702,3049,2009,36,293,0,45.4955428,-122.5946804
August-7-2020,8303 N Chautauqua Blvd,97217,499900,3,2.5,PORTLAND NORTH,1703,5662,2020,13,294,0,45.583387,-122.708353
July-31-2020,8295 N Chautauqua Blvd,97217,505000,3,2.5,PORTSMOUTH,1703,5662,2020,20,297,0,45.5833771,-122.7083019
April-16-2020,6156 NE Failing St,97213,458000,4,2,CULLY,1704,8276,1923,126,269,0,45.5509071,-122.5996826
April-24-2020,6304 SE Windsor Ct,97206,405000,4,2,PORTLAND SOUTHEAST,1704,1704,1947,118,238,0,45.504504,-122.5983383
July-24-2020,1615 SE 41st Ave,97214,555000,3,2,RICHMOND,1704,3920,1954,27,326,0,45.510962,-122.62052
June-12-2020,3730 SE 73rd Ave,97206,482900,3,2.5,PORTLAND SOUTHEAST,1708,1708,1909,69,283,0,45.4950905,-122.5877149
May-19-2020,3204 SE Kelly St,97202,510000,4,2,WAVERLEIGH HEIGHTS,1709,3920,1930,93,298,0,45.4996121,-122.6323708
May-7-2020,5102 NE 19th Ave,97211,476000,2,1.5,ALBERTA,1709,4791,1905,105,279,0,45.559779,-122.6455788
June-18-2020,9135 N Portsmouth Ave,97203,435000,3,2,PORTSMOUTH,1710,6098,1951,63,254,0,45.5892883,-122.7213842
March-24-2020,4037 N Borthwick Ave,97227,600000,2,2,BOISE,1710,4791,1894,149,351,0,45.5526284,-122.6736693
July-24-2020,830 N Watts St,97217,620000,3,2,PIEDMONT,1710,4791,1915,27,363,0,45.5812246,-122.675066
July-27-2020,8632 SE Taylor St,97216,426000,3,2,MONTAVILLA,1712,4791,1921,24,249,0,45.515273,-122.574314
July-1-2020,5423 SE Insley St,97206,450000,2,1.5,WOODSTOCK,1713,4356,1912,50,263,0,45.4840081,-122.6065886
June-24-2020,4022 SE 52nd Ave,97206,390000,4,2.5,FOSTER,1715,2613,2007,57,227,0,45.4935971,-122.6087901
July-15-2020,3946 NE 13th Ave,97212,420000,2,1,PORTLAND NORTHEAST,1716,4791,1906,36,245,0,45.5514928,-122.6526083
July-29-2020,1404 NE Going St,97211,525000,3,2,SABIN,1716,3920,1953,22,306,0,45.5562281,-122.6515294
May-18-2020,3543 SE 64th Ave,97206,447500,4,1,FOSTER,1718,3920,1902,94,260,0,45.4966931,-122.5975672
April-22-2020,9001 N Trumbull Ave,97203,480000,2,1,PORTLAND NORTH,1719,1719,1943,120,279,0,45.5957374,-122.7556455
March-4-2020,3532 SE 67th Ave,97206,375000,3,2,FOSTER,1720,3920,1904,169,218,0,45.4968723,-122.5939566
May-7-2020,1615 N Terry St,97217,396000,2,2,KENTON,1720,4791,1924,105,230,0,45.579717,-122.6833609
July-14-2020,2967 N Willamette Blvd,97217,635000,3,2,OVERLOOK,1720,4791,1925,37,369,0,45.5647335,-122.6972304
March-13-2020,4515 SE 34th Ave,97202,470000,2,1,REED,1720,5227,1927,160,273,0,45.4897311,-122.6296309
August-7-2020,3110 SE Berkeley Pl,97202,601000,3,2.5,PORTLAND SOUTHEAST,1720,5662,1994,13,349,2,45.4640968,-122.6305337
March-2-2020,3530 SE 65th Ave,97206,379900,2,2,PORTLAND SOUTHEAST,1721,3920,1942,171,221,0,45.4969019,-122.596047
July-17-2020,6227 SW 21st Ave,97239,490000,3,2.5,HILLSDALE,1727,4356,2007,34,284,0,45.4788076,-122.6995838
June-12-2020,1704 NE Bryant St,97211,427000,2,1,WOODLAWN,1728,4791,1906,69,247,0,45.5730977,-122.6481705
April-17-2020,3417 NE Liberty St,97211,400000,2,1,CONCORDIA,1728,7840,1948,125,231,0,45.5708664,-122.6290601
June-18-2020,3315 NE Rosa Parks Way,97211,450000,2,1,CONCORDIA,1728,5227,1948,63,260,0,45.5701951,-122.630258
June-17-2020,5609 SE Tolman St,97206,405000,3,1,PORTLAND SOUTHEAST,1732,4791,1909,64,234,0,45.477668,-122.6056237
March-26-2020,134 NE 79th Ave,97213,350000,2,2,PORTLAND NORTHEAST,1733,4791,1922,147,202,0,45.5239203,-122.5821733
August-3-2020,3368 N Farragut St,97217,425000,2,1,KENTON,1733,3484,1926,17,245,0,45.5790076,-122.7018306
July-15-2020,8046 SE 57th Ave,97206,464900,4,2.5,BRENTWOOD,1735,4356,2008,36,268,0,45.4650919,-122.6045316
June-30-2020,8904 N Courtenay Ave,97203,449900,3,2,PORTSMOUTH,1736,6969,1927,51,259,0,45.5867307,-122.7190925
August-13-2020,9124 N Haven Ave,97203,405000,3,2.5,NEW COLUMBIA,1736,3049,2006,7,233,101,45.588999,-122.7176701
June-17-2020,805 SE 74th Ave,97215,560000,3,2,MT TABOR,1737,5662,1956,64,322,0,45.5171814,-122.5869395
March-16-2020,2137 N Watts St,97217,530000,4,2.5,KENTON,1740,2613,2015,157,305,0,45.5811569,-122.688696
May-11-2020,5720 NE Everett St,97213,520000,3,2.5,PORTLAND NORTHEAST,1741,2178,2012,101,299,0,45.5247765,-122.6049403
June-16-2020,4521 SE Rex Dr,97206,549900,3,2.5,WOODSTOCK,1741,1741,2020,65,316,0,45.4686908,-122.6153904
July-9-2020,7524 N Bruce Ave,97203,449900,4,2.5,ST JOHNS,1742,3920,2008,42,258,0,45.6012498,-122.7624561
June-19-2020,1055 NE 58th Ave,97213,330000,3,2,PORTLAND NORTHEAST,1742,4791,1910,62,189,0,45.5308587,-122.604292
August-18-2020,4210 SE Bybee Blvd,97206,560000,3,2,WOODSTOCK,1745,4791,1953,2,321,0,45.4723919,-122.6190391
July-14-2020,3509 NE 22nd Ave,97212,640000,3,1.5,ALAMEDA,1747,4791,1926,37,366,0,45.5484371,-122.6434067
March-27-2020,7205 N Stanford Ave,97203,435000,3,1,PORTSMOUTH,1748,7405,1912,146,249,0,45.5794252,-122.7249186
June-25-2020,6522 N Wilbur Ave,97217,520000,3,2,ARBOR LODGE,1748,4791,1948,56,297,0,45.570373,-122.6932474
July-17-2020,235 NE 30th Ave,97232,710000,3,3,KERNS,1749,2613,1905,34,406,0,45.5249028,-122.634722
April-10-2020,9229 N Saint Louis Ave,97203,352000,2,1,ST JOHNS,1750,4791,1921,132,201,0,45.5953621,-122.7530985
April-8-2020,5719 SE 72nd Ave,97206,375000,3,2,PORTLAND SOUTHEAST,1750,5227,1912,134,214,0,45.4814297,-122.5894925
July-16-2020,7428 SE 66th Ave,97206,399999,4,2,BRENTWOOD,1750,5662,1946,35,229,0,45.4692648,-122.5949446
February-25-2020,9326 N Smith St,97203,405000,2,1,ST JOHNS,1752,9583,1943,177,231,0,45.596304,-122.7551647
June-10-2020,7843 N Wabash Ave,97217,374950,3,1,PORTLAND NORTH,1752,3484,1927,71,214,0,45.5803512,-122.7029343
July-20-2020,6720 NE Mallory Ave,97211,510000,2,1,PORTLAND NORTHEAST,1752,4791,1926,31,291,0,45.5714898,-122.6630762
July-10-2020,2815 NE 64th Ave,97213,626203,3,2,PORTLAND NORTHEAST,1755,4791,1925,41,357,0,45.5430971,-122.5976293
May-12-2020,9743 N Syracuse St,97203,435000,2,1,ST JOHNS,1759,4791,1915,100,247,0,45.5963323,-122.7628883
April-10-2020,7515 SE Ellis St,97206,416000,2,1,MT SCOTT,1760,4791,1910,132,236,0,45.4825647,-122.5852666
May-29-2020,10414 SE Lincoln Ct,97216,439000,3,1.5,CHERRY PARK,1762,6969,1959,83,249,0,45.5068442,-122.5558603
April-17-2020,7114 SE Mitchell St,97206,360000,3,1,PORTLAND SOUTHEAST,1763,4791,1908,125,204,0,45.4853994,-122.5900408
July-9-2020,4042 SE Franklin St,97202,683000,4,3,RICHMOND,1764,6534,1995,42,387,0,45.4989181,-122.6205216
April-16-2020,2929 SE 17th Ave,97202,430000,2,1,PORTLAND SOUTHEAST,1764,2178,1905,126,244,0,45.5016106,-122.6489594
June-18-2020,2335 SE Cesar E Chavez Blvd,97214,516000,3,2,RICHMOND,1765,6969,1938,63,292,0,45.5056299,-122.6229354
July-29-2020,3125 NE Cesar E Chavez Blvd,97212,645000,3,2.5,ALAMEDA,1770,2613,1925,22,364,0,45.5458726,-122.6231016
June-22-2020,6604 NE 24th Ave,97211,535000,4,2,PORTLAND NORTHEAST,1770,4791,1941,59,302,0,45.5706349,-122.6410575
July-20-2020,9409 N Tyler Ave,97203,326500,2,1,ST JOHNS,1771,1771,1951,31,184,0,45.5942549,-122.7439887
August-19-2020,2334 SE 8th Ave,97214,485000,4,2,PORTLAND SOUTHEAST,1771,3500,1891,1,274,0,45.5059429,-122.6574893
July-30-2020,5615 SE Knight St,97206,465000,2,2,PORTLAND SOUTHEAST,1771,4791,1908,21,263,0,45.4802766,-122.6054232
April-10-2020,7820 N Olympia St,97203,405000,4,3,ST JOHNS,1772,3920,1999,132,229,0,45.5970775,-122.7426389
March-18-2020,3207 SE 25th Ave,97202,571000,2,1,HOSFORD ABERNETHY,1778,2613,1900,155,321,0,45.4997076,-122.6409232
July-31-2020,4839 SE Rex Dr,97206,450000,4,2.5,PORTLAND SOUTHEAST,1778,7405,1995,20,253,0,45.4679466,-122.6129246
July-2-2020,7116 SE Cora St,97206,544900,3,2.5,FOSTER,1781,1781,2020,49,306,0,45.491506,-122.589975
July-31-2020,3738 SE 62nd Ave,97206,550000,4,2.5,PORTLAND SOUTHEAST,1782,3920,2007,20,309,0,45.4951729,-122.5991441
July-27-2020,6830 NE Pacific St,97213,400000,4,2.5,MONTAVILLA,1784,4791,1950,24,224,0,45.5291476,-122.5926813
April-15-2020,4506 SE Gladstone St,97206,299790,4,1,PORTLAND SOUTHEAST,1784,4791,1928,127,168,0,45.4933163,-122.6158289
August-14-2020,3224 NE 74th Ave,97213,400000,3,1,PORTLAND NORTHEAST,1786,4791,1915,6,224,0,45.5458384,-122.5866095
May-11-2020,5226 N Commercial Ave,97217,479000,4,2,WALNUT PARK,1786,4791,1940,101,268,0,45.5609381,-122.6708417
May-20-2020,2330 SE 44th Ave,97215,432664,2,1,RICHMOND,1788,3920,1922,92,242,0,45.5061666,-122.6168938
August-5-2020,4233 SE Lexington St,97206,553000,3,2,EASTMORELAND,1788,5227,1954,15,309,0,45.4665645,-122.6186557
April-9-2020,6116 NE 23rd Ave,97211,575000,2,2,CONCORDIA,1788,4791,1927,133,322,0,45.5672635,-122.6421132
May-20-2020,5128 NE 25th Ave,97211,413000,2,1,ALBERTA,1789,3920,1913,92,231,0,45.5600756,-122.6396443
April-20-2020,5723 NE Failing St,97213,500000,3,2.5,PORTLAND NORTHEAST,1790,5227,1923,122,279,0,45.5512959,-122.6038658
March-12-2020,3636 NE Cesar E Chavez Blvd,97212,540000,3,2,BEAUMONT,1792,4356,1927,161,301,0,45.5495152,-122.6229263
July-30-2020,4704 SE 36th Pl,97202,430000,2,1,REED,1792,4791,1938,21,240,0,45.4890145,-122.625456
May-21-2020,3542 SE Brooklyn St,97202,435000,2,1,WAVERLEIGH HEIGHTS,1792,3920,1919,91,243,0,45.5010654,-122.6275738
June-26-2020,7625 SE Bybee Blvd,97206,330000,4,2.5,BRENTWOOD,1792,3049,2007,55,184,0,45.4725079,-122.5848933
March-10-2020,9425 N Richmond Ave,97203,447000,2,1,ST JOHNS,1793,4791,1916,163,249,0,45.5954139,-122.7476857
April-10-2020,5245 NE 31st Ave,97211,525000,4,2.5,ALBERTA,1793,2613,2010,132,293,0,45.5609934,-122.63408
June-3-2020,5420 NE 28th Ave,97211,630000,3,2.5,PORTLAND NORTHEAST,1795,3920,1908,78,351,0,45.5623649,-122.6364757
April-30-2020,7631 N Edison St,97203,279000,3,1,PORTLAND NORTH,1796,4791,1905,112,155,0,45.5840953,-122.747282
July-10-2020,1724 NE Blue Heron Dr,97211,395150,3,2,EAST COLUMBIA,1798,6098,1999,41,220,0,45.5905664,-122.6478405
March-16-2020,1033 NE Lija Loop,97211,425000,3,2,PORTLAND NORTHEAST,1798,6969,1997,157,236,0,45.5919603,-122.6553087
March-31-2020,1812 NE Blue Heron Dr,97211,425000,3,2,EAST COLUMBIA,1798,6098,1999,142,236,0,45.5903,-122.6470018
April-16-2020,9318 N Buchanan Ave,97203,396400,2,2,ST JOHNS,1799,4791,1923,126,220,0,45.5929339,-122.7407954
July-15-2020,5817 NE 32nd Pl,97211,457000,2,1,PORTLAND NORTHEAST,1800,4791,1920,36,254,0,45.5647561,-122.6320892
July-8-2020,6916 NE Garfield Ave,97211,552000,4,2,PIEDMONT,1800,4791,1909,43,307,0,45.5727863,-122.6621117
March-17-2020,4326 NE 80th Ave,97218,415000,2,1,ROSEWAY,1800,4791,1948,156,231,0,45.5542315,-122.580406
May-5-2020,7314 N Fiske Ave,97203,341500,2,1,PORTLAND NORTH,1802,4791,1922,107,190,0,45.5785788,-122.7193517
February-28-2020,7462 N Stockton Ave,97203,564900,3,2.5,PORTSMOUTH,1802,1802,2020,174,313,0,45.579325,-122.7176377
February-26-2020,3329 NE 74th Ave,97213,471500,3,2.5,ROSEWAY,1803,2613,2015,176,262,0,45.5468535,-122.5872039
May-8-2020,2333 SE 98th Ave,97216,357000,3,2.5,PORTLAND SOUTHEAST,1804,4791,2002,104,198,0,45.5055993,-122.5626536
July-9-2020,5960 SE Tibbetts St,97206,428000,2,1,SOUTH TABOR,1804,7405,1952,42,237,0,45.5001946,-122.600259
February-27-2020,3409 NE Simpson St,97211,500000,3,2,PORTLAND NORTHEAST,1804,7405,1940,175,277,0,45.5652925,-122.6293532
May-7-2020,3915 NE 34th Ave,97212,555000,2,1,PORTLAND NORTHEAST,1805,4791,1951,105,307,0,45.5511746,-122.6299444
June-22-2020,1172 NE Morton St,97211,560000,4,2.5,WOODLAWN,1806,4791,2005,59,310,0,45.5696631,-122.6522151
August-12-2020,8701 N Tyndall Ave,97217,531000,3,2.5,PORTLAND NORTH,1808,3049,2014,8,294,0,45.5852483,-122.6934457
May-21-2020,110 S Grover St,97239,543000,3,2.5,SOUTH PORTLAND,1809,2178,1903,91,300,0,45.4999111,-122.6765314
August-13-2020,4325 NE Brazee St,97213,665000,2,1.5,PORTLAND NORTHEAST,1812,4356,1966,7,367,0,45.5407581,-122.618308
March-13-2020,2911 SE 81 Ave,97206,458000,4,3,SOUTH TABOR,1812,1812,2019,160,253,0,45.5011308,-122.5800216
August-18-2020,3959 SE Francis St,97202,527000,3,3,CRESTON,1812,5227,1927,2,291,0,45.494977,-122.6213537
July-22-2020,8035 SE Ramona St,97206,407000,4,2.5,PORTLAND SOUTHEAST,1812,3049,2012,29,225,0,45.4811947,-122.5807566
July-2-2020,6710 N Curtis Ave,97217,611000,3,2,PORTLAND NORTH,1814,6534,1940,49,337,0,45.5712851,-122.6979707
June-4-2020,5833 SE 22nd Ave,97202,453185,3,1,WESTMORELAND,1814,4791,1926,77,250,0,45.4803336,-122.6437235
July-31-2020,5205 N Gay Ave,97217,505000,2,1,OVERLOOK,1815,4791,1926,20,278,0,45.5607081,-122.6902864
July-31-2020,6910 SE Henry St,97206,450000,4,2.5,PORTLAND SOUTHEAST,1816,3484,2007,20,248,0,45.4766359,-122.5917806
February-28-2020,7932 N Seward Ave,97217,474900,3,2.5,KENTON,1817,3049,2009,174,261,0,45.5811216,-122.7033554
March-6-2020,7639 N Chatham Ave,97217,520000,3,2.5,PORTLAND NORTH,1819,1819,2019,167,286,0,45.5785477,-122.6882554
May-5-2020,2336 NE Cesar E Chavez Blvd,97212,500000,2,1,HOLLYWOOD,1820,4791,1926,107,275,0,45.5395975,-122.6227059
May-22-2020,1604 N Sumner St,97217,475000,3,1,OVERLOOK,1820,5000,1929,90,261,0,45.5603353,-122.6836449
April-21-2020,7912 SE 35th Ave,97202,581000,3,1,EASTMORELAND,1820,6098,1926,121,319,0,45.4664285,-122.6269026
June-15-2020,9016 N Portsmouth Ave,97203,499900,4,2.5,PORTSMOUTH,1821,3484,2020,66,275,0,45.5882698,-122.7206999
April-14-2020,402 SE 52nd Ave,97215,480000,4,1.5,MT TABOR,1822,4791,1890,128,263,0,45.5199967,-122.6099635
March-13-2020,5511 SE Cooper St,97206,246000,3,1,PORTLAND SOUTHEAST,1822,6098,1926,160,135,0,45.4737465,-122.6063373
May-14-2020,136 NE Morgan St,97211,440000,2,1,PORTLAND NORTHEAST,1822,4791,1949,98,241,0,45.5742864,-122.6641064
August-7-2020,5205 NE 48th Ave,97218,325000,3,1,PORTLAND NORTHEAST,1822,1822,1946,13,178,0,45.560566,-122.613527
June-17-2020,2404 N Sumner St,97217,494000,2,1,PORTLAND NORTH,1823,4791,1951,64,271,0,45.5603436,-122.6918071
July-15-2020,821 SE Bush St,97202,455000,3,1.5,BROOKLYN,1825,4356,1919,36,249,0,45.4951611,-122.6570079
April-10-2020,8285 N Wabash Ave,97217,425000,3,1,KENTON,1828,4791,1951,132,232,0,45.5831601,-122.7029352
June-12-2020,8556 N Polk Ave,97203,450000,3,2.5,ST JOHNS,1830,4791,2004,69,246,0,45.5906943,-122.7441754
June-26-2020,4113 NE 8th Ave,97211,525000,3,3,PORTLAND NORTHEAST,1830,4791,1906,55,287,0,45.553583,-122.6578603
June-12-2020,5727 N Bowdoin St,97203,525000,4,2.5,PORTSMOUTH,1831,3484,2013,69,287,0,45.5832252,-122.727955
April-30-2020,2850 NE Rodney Ave,97212,507747,2,1,PORTLAND NORTHEAST,1832,3484,1898,112,277,0,45.543584,-122.6639135
July-1-2020,4946 NE 35th Pl,97211,576000,4,2,CONCORDIA,1832,3920,1913,50,314,0,45.558998,-122.6273391
May-11-2020,2226 N Watts St,97217,463000,3,1,KENTON,1835,3920,1911,101,252,0,45.5807701,-122.6896683
August-6-2020,1420 NE Marine Dr,97211,419000,3,2,PORTLAND NORTH,1836,10890,1982,14,228,0,45.6000999,-122.6506496
May-19-2020,4029 NE 73rd Ave,97213,310000,3,1.5,ROSEWAY,1838,4791,1927,93,169,0,45.5521634,-122.5880366
July-29-2020,6369 N Commercial Ave,97217,547500,2,1,PIEDMONT,1839,4791,1923,22,298,0,45.5688256,-122.6715167
June-11-2020,5019 SE Steele St,97206,559000,3,1.5,WOODSTOCK,1839,4791,1923,70,304,0,45.4849033,-122.6108484
February-24-2020,10045 N Mohawk Ave,97203,330000,4,2,ST JOHNS,1840,4791,1913,178,179,0,45.5977574,-122.7443675
June-1-2020,5117 N Trenton St,97203,299000,2,1,PORTLAND NORTH,1840,3920,1925,80,163,0,45.5888571,-122.7192656
