SALE TYPE,SOLD DATE,PROPERTY TYPE,ADDRESS,CITY,STATE OR PROVINCE,ZIP OR POSTAL CODE,PRICE,BEDS,BATHS,LOCATION,SQUARE FEET,LOT SIZE,YEAR BUILT,DAYS ON MARKET,$/SQUARE FEET,HOA/MONTH,STATUS,NEXT OPEN HOUSE START TIME,NEXT OPEN HOUSE END TIME,URL (SEE http://www.redfin.com/buy-a-home/comparative-market-analysis FOR INFO ON PRICING),SOURCE,MLS#,FAVORITE,INTERESTED,LATITUDE,LONGITUDE
PAST SALE,March-16-2020,Single Family Residential,2137 N Watts St,Portland,OR,97217,530000,4,2.5,KENTON,1740,2613,2015,157,305,,Sold,,,http://www.redfin.com/OR/Portland/2137-N-Watts-St-97217/home/61443378,RMLS,20361525,N,Y,45.5811569,-122.688696
PAST SALE,March-20-2020,Single Family Residential,2509 N Halleck St,Portland,OR,97217,458000,3,2.5,KENTON,1507,2613,2018,153,304,,Sold,,,http://www.redfin.com/OR/Portland/2509-N-Halleck-St-97217/home/113643019,RMLS,20010084,N,Y,45.5828491,-122.6927818
PAST SALE,March-16-2020,Single Family Residential,6717 N Montana Ave,Portland,OR,97217,465000,3,2.5,ARBOR LODGE,1888,3484,1925,157,246,,Sold,,,http://www.redfin.com/OR/Portland/6717-N-Montana-Ave-97217/home/25797550,RMLS,20125989,N,Y,45.5715571,-122.6800634
PAST SALE,March-18-2020,Single Family Residential,229 N Baldwin St,Portland,OR,97217,480000,3,2.0,PIEDMONT,1644,4791,1937,155,292,,Sold,,,http://www.redfin.com/OR/Portland/229-N-Baldwin-St-97217/home/26490999,RMLS,20135937,N,Y,45.5788115,-122.6689871
PAST SALE,May-14-2020,Single Family Residential,3273 N Arlington Pl,Portland,OR,97217,386000,3,2.5,KENTON,1423,2178,2005,98,271,,Sold,,,http://www.redfin.com/OR/Portland/3273-N-Arlington-Pl-97217/home/25859653,RMLS,20692491,N,Y,45.5835164,-122.7004786
PAST SALE,May-29-2020,Single Family Residential,7535 N Fenwick Ave,Portland,OR,97217,405000,4,1.0,Portland North,2504,5227,1923,83,162,,Sold,,,http://www.redfin.com/OR/Portland/7535-N-Fenwick-Ave-97217/home/25804807,RMLS,20658637,N,Y,45.577699,-122.6850334
PAST SALE,March-4-2020,Single Family Residential,2340 N Winchell St,Portland,OR,97217,405000,3,1.5,KENTON,1028,1742,1910,169,394,,Sold,,,http://www.redfin.com/OR/Portland/2340-N-Winchell-St-97217/home/25754326,RMLS,19508262,N,Y,45.5800882,-122.69096
PAST SALE,March-18-2020,Single Family Residential,3538 N Halleck St,Portland,OR,97217,449900,3,2.0,KENTON,1224,7405,1954,155,368,,Sold,,,http://www.redfin.com/OR/Portland/3538-N-Halleck-St-97217/home/26596588,RMLS,19011742,N,Y,45.5824679,-122.7035209
PAST SALE,July-20-2020,Single Family Residential,8816 N Burrage Ave,Portland,OR,97217,470000,3,2.5,KENTON,1656,2613,2017,31,284,,Sold,,,http://www.redfin.com/OR/Portland/8816-N-Burrage-Ave-97217/home/49692767,RMLS,20356344,N,Y,45.5863221,-122.6948777
PAST SALE,July-30-2020,Single Family Residential,8814 N Seward Ave,Portland,OR,97217,527000,4,2.0,KENTON,1415,7405,1963,21,372,,Sold,,,http://www.redfin.com/OR/Portland/8814-N-Seward-Ave-97217/home/25858241,RMLS,20644185,N,Y,45.5866465,-122.7044811
PAST SALE,March-24-2020,Single Family Residential,921 N Stafford St,Portland,OR,97217,423500,3,2.5,PEIDMONT,1406,2613,2008,149,301,,Sold,,,http://www.redfin.com/OR/Portland/921-N-Stafford-St-97217/home/25799623,RMLS,20066410,N,Y,45.5767023,-122.6768818
PAST SALE,,Single Family Residential,5027 N Concord Ave,Portland,OR,97217,475000,5,2.0,,2580,5000,1896,,184,,,,,http://www.redfin.com/OR/Portland/5027-N-Concord-Ave-97217/home/26553845,,,N,Y,45.5595657,-122.6851273
PAST SALE,April-3-2020,Single Family Residential,6324 N Villard Ave,Portland,OR,97217,555000,3,2.0,ARBOR LODGE/OVERLOOK,1888,4791,1928,139,294,,Sold,,,http://www.redfin.com/OR/Portland/6324-N-Villard-Ave-97217/home/26590769,RMLS,20678704,N,Y,45.5686447,-122.6973511
PAST SALE,,Single Family Residential,5517 N Commercial Ave,Portland,OR,97217,575000,3,2.0,,1866,3812,1923,,308,,,,,http://www.redfin.com/OR/Portland/5517-N-Commercial-Ave-97217/home/26633864,,,N,Y,45.5630058,-122.6715774
PAST SALE,,Single Family Residential,6824 N Haight Ave,Portland,OR,97217,500000,4,1.0,,2516,4700,1947,,199,,,,,http://www.redfin.com/OR/Portland/6824-N-Haight-Ave-97217/home/26517243,,,N,Y,45.5724247,-122.6695298
PAST SALE,July-24-2020,Single Family Residential,830 N Watts St,Portland,OR,97217,620000,3,2.0,PIEDMONT,1710,4791,1915,27,363,,Sold,,,http://www.redfin.com/OR/Portland/830-N-Watts-St-97217/home/26543002,RMLS,20035458,N,Y,45.5812246,-122.675066
PAST SALE,July-7-2020,Single Family Residential,7245 N Lancaster Ave,Portland,OR,97217,579000,4,2.5,ARBOR LODGE,2217,3484,2012,44,261,,Sold,,,http://www.redfin.com/OR/Portland/7245-N-Lancaster-Ave-97217/home/25751252,RMLS,20032542,N,Y,45.5758998,-122.6884378
PAST SALE,May-4-2020,Single Family Residential,1531 N Jessup St,Portland,OR,97217,571000,3,1.5,ARBOR LODGE,2286,5662,1906,108,250,,Sold,,,http://www.redfin.com/OR/Portland/1531-N-Jessup-St-97217/home/25832234,RMLS,20545646,N,Y,45.564261,-122.6830578
PAST SALE,July-14-2020,Single Family Residential,2315 N Wygant St,Portland,OR,97217,485000,3,1.0,OVERLOOK,2200,4791,1927,37,220,,Sold,,,http://www.redfin.com/OR/Portland/2315-N-Wygant-St-97217/home/26439672,RMLS,20597204,N,Y,45.5578268,-122.6912215
PAST SALE,April-13-2020,Single Family Residential,1806 N Alberta St,Portland,OR,97217,1050000,3,2.5,Overlook,3353,4791,2016,129,313,,Sold,,,http://www.redfin.com/OR/Portland/1806-N-Alberta-St-97217/home/26366605,RMLS,20223666,N,Y,45.5589194,-122.68586
PAST SALE,July-23-2020,Single Family Residential,7216 N Kerby Ave,Portland,OR,97217,540000,3,2.0,PIEDMONT,2012,4791,1952,28,268,,Sold,,,http://www.redfin.com/OR/Portland/7216-N-Kerby-Ave-97217/home/25782155,RMLS,20601957,N,Y,45.5753912,-122.6725007
PAST SALE,April-16-2020,Single Family Residential,6530 N Maryland Ave,Portland,OR,97217,535000,4,2.0,ARBOR LODGE/OVERLOOK,2469,7405,1925,126,217,,Sold,,,http://www.redfin.com/OR/Portland/6530-N-Maryland-Ave-97217/home/26586165,RMLS,20658238,N,Y,45.570464,-122.6806495
PAST SALE,May-7-2020,Single Family Residential,1029 N Buffalo St,Portland,OR,97217,508000,4,3.0,PIEDMONT,2444,4791,1926,105,208,,Sold,,,http://www.redfin.com/OR/Portland/1029-N-Buffalo-St-97217/home/26311180,RMLS,20029799,N,Y,45.5752696,-122.6777247
PAST SALE,June-15-2020,Single Family Residential,2223 N Webster St,Portland,OR,97217,525000,3,2.0,Overlook,2155,4791,1928,66,244,,Sold,,,http://www.redfin.com/OR/Portland/2223-N-Webster-St-97217/home/25735554,RMLS,20537515,N,Y,45.5600064,-122.6906463
PAST SALE,May-14-2020,Single Family Residential,1536 N Farragut St,Portland,OR,97217,585000,4,3.0,Portland North,2543,4791,1927,98,230,,Sold,,,http://www.redfin.com/OR/Portland/1536-N-Farragut-St-97217/home/26312215,RMLS,20290136,N,Y,45.5786456,-122.6829804
PAST SALE,July-27-2020,Single Family Residential,2009 N Humboldt St,Portland,OR,97217,670000,3,2.5,Overlook,2465,4791,2013,24,272,,Sold,,,http://www.redfin.com/OR/Portland/2009-N-Humboldt-St-97217/home/26629081,RMLS,20175714,N,Y,45.5585408,-122.6878418
PAST SALE,,Single Family Residential,6824 N Commercial Ave,Portland,OR,97217,565000,3,1.0,,2276,4500,1947,,248,,,,,http://www.redfin.com/OR/Portland/6824-N-Commercial-Ave-97217/home/26501424,,,N,Y,45.5724482,-122.670483
PAST SALE,,Single Family Residential,6324 N Michigan Ave,Portland,OR,97217,387500,4,1.5,,1872,5000,1940,,207,,,,,http://www.redfin.com/OR/Portland/6324-N-Michigan-Ave-97217/home/26362042,,,N,Y,45.5688915,-122.6765721
PAST SALE,June-17-2020,Single Family Residential,2404 N Sumner St,Portland,OR,97217,494000,2,1.0,Portland North,1823,4791,1951,64,271,,Sold,,,http://www.redfin.com/OR/Portland/2404-N-Sumner-St-97217/home/26507550,RMLS,20334585,N,Y,45.5603436,-122.6918071
PAST SALE,May-7-2020,Single Family Residential,1615 N Terry St,Portland,OR,97217,396000,2,2.0,KENTON,1720,4791,1924,105,230,,Sold,,,http://www.redfin.com/OR/Portland/1615-N-Terry-St-97217/home/25866165,RMLS,20118317,N,Y,45.579717,-122.6833609
PAST SALE,June-15-2020,Single Family Residential,514 N Stafford St,Portland,OR,97217,560000,4,2.0,PIEDMONT,1676,4791,1938,66,334,,Sold,,,http://www.redfin.com/OR/Portland/514-N-Stafford-St-97217/home/26317509,RMLS,20313259,N,Y,45.5763186,-122.671116
PAST SALE,June-18-2020,Single Family Residential,2006 N Wygant St,Portland,OR,97217,670000,4,1.5,Portland North,3064,7405,1927,63,219,,Sold,,,http://www.redfin.com/OR/Portland/2006-N-Wygant-St-97217/home/26398452,RMLS,20586112,N,Y,45.5574393,-122.6876528
PAST SALE,,Single Family Residential,4625 N Montana Ave,Portland,OR,97217,180000,3,1.0,,1560,5000,1911,,115,,,,,http://www.redfin.com/OR/Portland/4625-N-Montana-Ave-97217/home/26528189,,,N,Y,45.5565862,-122.6803095
PAST SALE,,Single Family Residential,4734 N Mississippi Ave Unit A,Portland,OR,97217,450000,1,2.0,,862,5000,1906,,522,,,,,http://www.redfin.com/OR/Portland/4734-N-Mississippi-Ave-97217/unit-A/home/26459791,,,N,Y,45.5574395,-122.6757244
PAST SALE,July-31-2020,Single Family Residential,2031 N Killingsworth St,Portland,OR,97217,439900,3,2.0,OVERLOOK,1999,2613,1925,20,220,,Sold,,,http://www.redfin.com/OR/Portland/2031-N-Killingsworth-St-97217/home/26322780,RMLS,20614807,N,Y,45.5628738,-122.688184
PAST SALE,August-14-2020,Single Family Residential,4644 N Haight Ave,Portland,OR,97217,545000,3,2.0,HUMBOLDT,1332,3484,1996,6,409,,Sold,,,http://www.redfin.com/OR/Portland/4644-N-Haight-Ave-97217/home/25795321,RMLS,20132634,N,Y,45.5567032,-122.6698107
PAST SALE,July-30-2020,Single Family Residential,7400 N Lancaster Ave,Portland,OR,97217,510000,3,2.5,ARBOR LODGE,1507,2613,2020,21,338,,Sold,,,http://www.redfin.com/OR/Portland/7400-N-Lancaster-Ave-97217/home/172391303,RMLS,20417863,N,Y,45.5765236,-122.6883008
PAST SALE,May-11-2020,Single Family Residential,5226 N Commercial Ave,Portland,OR,97217,479000,4,2.0,Walnut Park,1786,4791,1940,101,268,,Sold,,,http://www.redfin.com/OR/Portland/5226-N-Commercial-Ave-97217/home/25750333,RMLS,20172541,N,Y,45.5609381,-122.6708417
PAST SALE,August-3-2020,Single Family Residential,1626 N Humboldt St,Portland,OR,97217,525000,2,1.0,OVERLOOK / ARBOR LODGE,1640,5227,1924,17,320,,Sold,,,http://www.redfin.com/OR/Portland/1626-N-Humboldt-St-97217/home/26567378,RMLS,20524445,N,Y,45.5582097,-122.684097
PAST SALE,August-5-2020,Single Family Residential,735 N Terry St,Portland,OR,97217,439900,3,1.0,Portland North,2556,4791,1947,15,172,,Sold,,,http://www.redfin.com/OR/Portland/735-N-Terry-St-97217/home/26368300,RMLS,20062351,N,Y,45.5801526,-122.6740458
PAST SALE,July-17-2020,Single Family Residential,337 N Baldwin St,Portland,OR,97217,469900,2,2.0,PIEDMONT,2554,4791,1940,34,184,,Sold,,,http://www.redfin.com/OR/Portland/337-N-Baldwin-St-97217/home/26546756,RMLS,20416945,N,Y,45.5787898,-122.6699536
PAST SALE,June-15-2020,Single Family Residential,4325 N Mississippi Ave,Portland,OR,97217,550000,3,1.0,Mississipi,1546,4791,1920,66,356,,Sold,,,http://www.redfin.com/OR/Portland/4325-N-Mississippi-Ave-97217/home/26525933,RMLS,20116215,N,Y,45.555191,-122.67582
PAST SALE,May-11-2020,Single Family Residential,2226 N Watts St,Portland,OR,97217,463000,3,1.0,Kenton,1835,3920,1911,101,252,,Sold,,,http://www.redfin.com/OR/Portland/2226-N-Watts-St-97217/home/26496045,RMLS,20023347,N,Y,45.5807701,-122.6896683
PAST SALE,June-26-2020,Single Family Residential,3440 N Willis Blvd,Portland,OR,97217,617000,3,2.5,Portland North,2111,4356,2013,55,292,,Sold,,,http://www.redfin.com/OR/Portland/3440-N-Willis-Blvd-97217/home/26547155,RMLS,20074256,N,Y,45.5837861,-122.702483
PAST SALE,July-10-2020,Single Family Residential,6503 N Burrage Ave,Portland,OR,97217,570000,2,1.0,ARBOR LODGE,2055,,1922,41,277,,Sold,,,http://www.redfin.com/OR/Portland/6503-N-Burrage-Ave-97217/home/25823811,RMLS,20037434,N,Y,45.5701281,-122.6947801
PAST SALE,July-17-2020,Single Family Residential,3532 N Winchell St,Portland,OR,97217,640000,4,2.5,KENTON,2113,5662,2018,34,303,,Sold,,,http://www.redfin.com/OR/Portland/3532-N-Winchell-St-97217/home/170024226,RMLS,20433356,N,Y,45.5804744,-122.703448
PAST SALE,May-1-2020,Single Family Residential,3105 N Watts St,Portland,OR,97217,467500,4,1.5,GLENWOOD PARK,1876,4791,1928,111,249,,Sold,,,http://www.redfin.com/OR/Portland/3105-N-Watts-St-97217/home/26462881,RMLS,20407773,N,Y,45.5814649,-122.6981816
PAST SALE,May-11-2020,Single Family Residential,2521 N Winchell St,Portland,OR,97217,411000,3,2.5,KENTON,1447,2613,2009,101,284,,Sold,,,http://www.redfin.com/OR/Portland/2521-N-Winchell-St-97217/home/25831576,RMLS,20231892,N,Y,45.5807595,-122.6931009
PAST SALE,May-4-2020,Single Family Residential,3308 N Farragut St,Portland,OR,97217,562498,3,2.0,KENTON,2072,5227,1924,108,271,,Sold,,,http://www.redfin.com/OR/Portland/3308-N-Farragut-St-97217/home/25735619,RMLS,20138466,N,Y,45.5789747,-122.7008111
PAST SALE,May-14-2020,Single Family Residential,3140 N Willis Blvd,Portland,OR,97217,330500,2,1.0,Portland North,1296,4356,1925,98,255,,Sold,,,http://www.redfin.com/OR/Portland/3140-N-Willis-Blvd-97217/home/26302388,RMLS,20396988,N,Y,45.5837827,-122.6993282
PAST SALE,,Single Family Residential,7223 N Omaha Ave,Portland,OR,97217,365000,3,1.0,,941,5000,1956,,388,,,,,http://www.redfin.com/OR/Portland/7223-N-Omaha-Ave-97217/home/26305833,,,N,Y,45.5757422,-122.6906207
PAST SALE,March-23-2020,Single Family Residential,2515 N Lombard St,Portland,OR,97217,400000,3,1.0,Portland North,1984,3484,1928,150,202,,Sold,,,http://www.redfin.com/OR/Portland/2515-N-Lombard-St-97217/home/26361984,RMLS,20468164,N,Y,45.577313,-122.6927794
PAST SALE,August-7-2020,Single Family Residential,8303 N Chautauqua Blvd,Portland,OR,97217,499900,3,2.5,Portland North,1703,5662,2020,13,294,,Sold,,,http://www.redfin.com/OR/Portland/8303-N-Chautauqua-Blvd-97217/home/49694405,RMLS,20257748,N,Y,45.583387,-122.708353
PAST SALE,April-13-2020,Single Family Residential,3620 N Alaska St,Portland,OR,97217,263000,3,3.0,Portland North,2744,13503,1966,129,96,,Sold,,,http://www.redfin.com/OR/Portland/3620-N-Alaska-St-97217/home/26300727,RMLS,20163520,N,Y,45.586944,-122.7039392
PAST SALE,May-25-2020,Single Family Residential,6324 N Atlantic Ave,Portland,OR,97217,596500,4,2.0,Portland North,1682,7405,1907,87,355,,Sold,,,http://www.redfin.com/OR/Portland/6324-N-Atlantic-Ave-97217/home/26339472,RMLS,20357999,N,Y,45.5686085,-122.69631
PAST SALE,March-6-2020,Single Family Residential,2820 N Willamette Blvd,Portland,OR,97217,510000,4,2.0,OVERLOOK,2579,4791,1928,167,198,,Sold,,,http://www.redfin.com/OR/Portland/2820-N-Willamette-Blvd-97217/home/26531628,RMLS,19210459,N,Y,45.5617859,-122.6961271
PAST SALE,March-19-2020,Single Family Residential,3019 N Hunt St,Portland,OR,97217,639900,3,2.5,Portland North,2480,,2019,154,258,,Sold,,,http://www.redfin.com/OR/Portland/3019-N-Hunt-St-97217/home/49692761,RMLS,19333490,N,Y,45.5858,-122.697553
PAST SALE,April-13-2020,Single Family Residential,7419 N Washburne Ave,Portland,OR,97217,615000,3,2.5,ARBOR LODGE,3064,6098,1941,129,201,,Sold,,,http://www.redfin.com/OR/Portland/7419-N-Washburne-Ave-97217/home/26547664,RMLS,19025616,N,Y,45.5767675,-122.7061489
PAST SALE,June-17-2020,Single Family Residential,6355 N Burrage Ave,Portland,OR,97217,518885,3,2.0,ARBOR LODGE,2546,4791,1940,64,204,,Sold,,,http://www.redfin.com/OR/Portland/6355-N-Burrage-Ave-97217/home/26525822,RMLS,20368296,N,Y,45.5690184,-122.6947762
PAST SALE,June-25-2020,Single Family Residential,6522 N Wilbur Ave,Portland,OR,97217,520000,3,2.0,Arbor Lodge,1748,4791,1948,56,297,,Sold,,,http://www.redfin.com/OR/Portland/6522-N-Wilbur-Ave-97217/home/26546028,RMLS,20460326,N,Y,45.570373,-122.6932474
PAST SALE,June-23-2020,Single Family Residential,3507 N Halleck St,Portland,OR,97217,455600,4,2.0,KENTON,1872,6534,1959,58,243,,Sold,,,http://www.redfin.com/OR/Portland/3507-N-Halleck-St-97217/home/26385701,RMLS,20004552,N,Y,45.5828268,-122.7029158
PAST SALE,,Single Family Residential,2709 N Winchell St,Portland,OR,97217,540000,4,1.5,,1907,5000,1955,,283,,,,,http://www.redfin.com/OR/Portland/2709-N-Winchell-St-97217/home/26519030,,,N,Y,45.580722,-122.6952378
PAST SALE,March-3-2020,Single Family Residential,6206 N Atlantic Ave,Portland,OR,97217,509000,4,1.5,Portland North,2630,4791,1940,170,194,,Sold,,,http://www.redfin.com/OR/Portland/6206-N-Atlantic-Ave-97217/home/26337504,RMLS,19257934,N,Y,45.5676477,-122.6963551
PAST SALE,August-12-2020,Single Family Residential,8701 N Tyndall Ave,Portland,OR,97217,531000,3,2.5,Portland North,1808,3049,2014,8,294,,Sold,,,http://www.redfin.com/OR/Portland/8701-N-Tyndall-Ave-97217/home/45525205,RMLS,20026601,N,Y,45.5852483,-122.6934457
PAST SALE,April-8-2020,Single Family Residential,3523 N Russet St,Portland,OR,97217,435000,2,2.0,KENTON,1944,4791,1916,134,224,,Sold,,,http://www.redfin.com/OR/Portland/3523-N-Russet-St-97217/home/26426655,RMLS,20289557,N,Y,45.578138,-122.70329
PAST SALE,August-13-2020,Single Family Residential,3102 N Rosa Parks Way,Portland,OR,97217,650000,4,3.0,Portland North,2982,5227,1929,7,218,,Sold,,,http://www.redfin.com/OR/Portland/3102-N-Rosa-Parks-Way-97217/home/25864186,RMLS,20571368,N,Y,45.5696709,-122.6983847
PAST SALE,August-13-2020,Single Family Residential,9310 N Chase Ave,Portland,OR,97217,358000,3,1.0,KENTON,928,5227,1954,7,386,,Sold,,,http://www.redfin.com/OR/Portland/9310-N-Chase-Ave-97217/home/26552641,RMLS,20471765,N,Y,45.5902713,-122.7040898
PAST SALE,July-31-2020,Single Family Residential,2601 N Baldwin St,Portland,OR,97217,500000,4,2.0,KENTON,2529,4791,1942,20,198,,Sold,,,http://www.redfin.com/OR/Portland/2601-N-Baldwin-St-97217/home/26448209,RMLS,20242848,N,Y,45.5786564,-122.6935628
PAST SALE,May-29-2020,Single Family Residential,3111 N Farragut St,Portland,OR,97217,392900,2,1.0,Portland North,1456,4791,1927,83,270,,Sold,,,http://www.redfin.com/OR/Portland/3111-N-Farragut-St-97217/home/26428383,RMLS,20123334,N,Y,45.5793324,-122.6982858
PAST SALE,May-21-2020,Single Family Residential,5826 N Burrage Ave,Portland,OR,97217,400000,3,2.0,OVERLOOK,1056,4791,1981,91,379,,Sold,,,http://www.redfin.com/OR/Portland/5826-N-Burrage-Ave-97217/home/26549812,RMLS,20405299,N,Y,45.5655079,-122.6941758
PAST SALE,July-31-2020,Single Family Residential,8295 N Chautauqua Blvd,Portland,OR,97217,505000,3,2.5,PORTSMOUTH,1703,5662,2020,20,297,,Sold,,,http://www.redfin.com/OR/Portland/8295-N-Chautauqua-Blvd-97217/home/172278538,RMLS,20291633,N,Y,45.5833771,-122.7083019
PAST SALE,June-18-2020,Single Family Residential,6316 N Villard Ave,Portland,OR,97217,605000,3,2.5,ARBOR LODGE,2312,4791,1927,63,262,,Sold,,,http://www.redfin.com/OR/Portland/6316-N-Villard-Ave-97217/home/26547388,RMLS,20496383,N,Y,45.5684991,-122.697324
PAST SALE,August-5-2020,Single Family Residential,2619 N Terry St,Portland,OR,97217,505000,3,2.0,KENTON,1390,4791,1950,15,363,,Sold,,,http://www.redfin.com/OR/Portland/2619-N-Terry-St-97217/home/26606900,RMLS,20621779,N,Y,45.5800157,-122.6939758
PAST SALE,August-3-2020,Single Family Residential,8910 N Endicott Ave,Portland,OR,97217,390000,3,1.0,Portland North,1165,4791,1980,17,335,,Sold,,,http://www.redfin.com/OR/Portland/8910-N-Endicott-Ave-97217/home/26562349,RMLS,20043757,N,Y,45.5873535,-122.701124
PAST SALE,August-6-2020,Single Family Residential,6317 N Wilbur Ave,Portland,OR,97217,405000,2,1.0,Portland North,768,4791,1951,14,527,,Sold,,,http://www.redfin.com/OR/Portland/6317-N-Wilbur-Ave-97217/home/26471972,RMLS,20072610,N,Y,45.5684743,-122.693811
PAST SALE,,Single Family Residential,6012 N Villard Ave,Portland,OR,97217,415000,2,1.0,,936,5000,1906,,443,,,,,http://www.redfin.com/OR/Portland/6012-N-Villard-Ave-97217/home/26339496,,,N,Y,45.5666357,-122.6973288
PAST SALE,August-7-2020,Single Family Residential,6435 N Villard Ave,Portland,OR,97217,467000,2,1.0,Arbor Lodge,1440,4791,1950,13,324,,Sold,,,http://www.redfin.com/OR/Portland/6435-N-Villard-Ave-97217/home/26337567,RMLS,20430522,N,Y,45.5695897,-122.6978363
PAST SALE,June-1-2020,Single Family Residential,6415 N Burrage Ave,Portland,OR,97217,425000,4,2.0,ARBOR LODGE,1890,4791,1912,80,225,,Sold,,,http://www.redfin.com/OR/Portland/6415-N-Burrage-Ave-97217/home/26429928,RMLS,20191698,N,Y,45.5693031,-122.6947863
PAST SALE,June-12-2020,Single Family Residential,3629 N Winchell St,Portland,OR,97217,570000,3,2.0,Portland North,2388,7840,1951,69,239,,Sold,,,http://www.redfin.com/OR/Portland/3629-N-Winchell-St-97217/home/25785773,RMLS,20662113,N,Y,45.5807725,-122.7041863
PAST SALE,June-5-2020,Single Family Residential,25 N Bryant St,Portland,OR,97217,584000,3,2.0,Portland North,2857,4791,1904,76,204,,Sold,,,http://www.redfin.com/OR/Portland/25-N-Bryant-St-97217/home/26496991,RMLS,20398430,N,Y,45.5735228,-122.6673876
PAST SALE,,Single Family Residential,109 N Lotus Beach Dr,Portland,OR,97217,1300000,4,3.5,,4938,14400,1982,,263,,,,,http://www.redfin.com/OR/Portland/109-N-Lotus-Beach-Dr-97217/home/26307897,,,N,Y,45.6078546,-122.666223
PAST SALE,,Single Family Residential,9016 N Endicott Ave,Portland,OR,97217,160000,,1.0,,1468,7500,1920,,109,,,,,http://www.redfin.com/OR/Portland/9016-N-Endicott-Ave-97217/home/26443071,,,N,Y,45.5880591,-122.7011062
PAST SALE,March-6-2020,Single Family Residential,7639 N Chatham Ave,Portland,OR,97217,520000,3,2.5,Portland North,1819,,2019,167,286,,Sold,,,http://www.redfin.com/OR/Portland/7639-N-Chatham-Ave-97217/home/170325945,RMLS,20694294,N,Y,45.5785477,-122.6882554
PAST SALE,February-27-2020,Single Family Residential,3326 N Farragut St,Portland,OR,97217,448000,3,3.0,Portland North,2379,3484,1929,175,188,,Sold,,,http://www.redfin.com/OR/Portland/3326-N-Farragut-St-97217/home/26561610,RMLS,19672423,N,Y,45.5790008,-122.7011468
PAST SALE,March-13-2020,Single Family Residential,6248 N Concord Ave,Portland,OR,97217,784500,6,4.5,ARBOR LODGE,2966,1742,2017,160,264,,Sold,,,http://www.redfin.com/OR/Portland/6248-N-Concord-Ave-97217/unit-A/home/26329074,RMLS,20332452,N,Y,45.568282,-122.683847
PAST SALE,April-10-2020,Single Family Residential,8421 N Burrage Ave,Portland,OR,97217,607500,4,3.5,KENTON,2353,,2020,132,258,,Sold,,,http://www.redfin.com/OR/Portland/8421-N-Burrage-Ave-97217/home/26324469,RMLS,20521760,N,Y,45.5838992,-122.6950319
PAST SALE,April-10-2020,Single Family Residential,8285 N Wabash Ave,Portland,OR,97217,425000,3,1.0,KENTON,1828,4791,1951,132,232,,Sold,,,http://www.redfin.com/OR/Portland/8285-N-Wabash-Ave-97217/home/26551873,RMLS,20119324,N,Y,45.5831601,-122.7029352
PAST SALE,March-17-2020,Single Family Residential,169 N Lotus Beach Dr,Portland,OR,97217,614000,3,3.0,Portland North,3075,7405,1980,156,200,454,Sold,,,http://www.redfin.com/OR/Portland/169-N-Lotus-Beach-Dr-97217/home/25841743,RMLS,19478131,N,Y,45.6075842,-122.6679018
PAST SALE,March-20-2020,Single Family Residential,8835 N Bayard Ave,Portland,OR,97217,390000,3,2.5,KENTON,1549,2613,2005,153,252,,Sold,,,http://www.redfin.com/OR/Portland/8835-N-Bayard-Ave-97217/home/26440369,RMLS,20656802,N,Y,45.5867772,-122.7007394
PAST SALE,April-9-2020,Single Family Residential,5037 N Concord Ave,Portland,OR,97217,505000,3,2.5,Portland North,2668,4791,1940,133,189,,Sold,,,http://www.redfin.com/OR/Portland/5037-N-Concord-Ave-97217/home/26538727,RMLS,20139215,N,Y,45.5596854,-122.6851389
PAST SALE,March-31-2020,Single Family Residential,626 N Lombard St,Portland,OR,97217,375000,2,1.0,PIEDMONT,1256,4791,1927,142,299,,Sold,,,http://www.redfin.com/OR/Portland/626-N-Lombard-St-97217/home/26333169,RMLS,20381118,N,Y,45.5770326,-122.6733812
PAST SALE,April-3-2020,Single Family Residential,2249 N Winchell St,Portland,OR,97217,462427,4,2.0,Kenton,2332,4791,1921,139,198,,Sold,,,http://www.redfin.com/OR/Portland/2249-N-Winchell-St-97217/home/25788025,RMLS,20288531,N,Y,45.5803885,-122.69012
PAST SALE,March-20-2020,Single Family Residential,4135 N Court Ave,Portland,OR,97217,607500,3,2.0,OVERLOOK TRIANGLE,2078,4791,1924,153,292,,Sold,,,http://www.redfin.com/OR/Portland/4135-N-Court-Ave-97217/home/25851075,RMLS,20502920,N,Y,45.5539817,-122.687404
PAST SALE,March-17-2020,Single Family Residential,8789 N Wilbur Ave,Portland,OR,97217,479900,4,2.5,KENTON,1876,2613,2020,156,256,,Sold,,,http://www.redfin.com/OR/Portland/8789-N-Wilbur-Ave-97217/home/49692771,RMLS,20199399,N,Y,45.5862984,-122.6944607
PAST SALE,March-10-2020,Single Family Residential,8675 N Burrage Ave,Portland,OR,97217,465000,3,2.5,KENTON,1670,,2019,163,278,,Sold,,,http://www.redfin.com/OR/Portland/8675-N-Burrage-Ave-97217/home/161472825,RMLS,19699781,N,Y,45.5853507,-122.6953005
PAST SALE,March-18-2020,Single Family Residential,4116 N Borthwick Ave,Portland,OR,97217,450000,2,1.0,Portland North,1336,5227,1933,155,337,,Sold,,,http://www.redfin.com/OR/Portland/4116-N-Borthwick-Ave-97217/home/26394792,RMLS,19602675,N,Y,45.5536111,-122.6731377
PAST SALE,July-15-2020,Single Family Residential,1815 N Prescott St,Portland,OR,97217,419900,2,1.0,OVERLOOK,960,4356,1948,36,437,,Sold,,,http://www.redfin.com/OR/Portland/1815-N-Prescott-St-97217/home/25817190,RMLS,20019617,N,Y,45.5555979,-122.6862123
PAST SALE,June-12-2020,Single Family Residential,562 N Blandena St,Portland,OR,97217,685000,4,4.0,MISSISSIPPI,2165,2613,2019,69,316,,Sold,,,http://www.redfin.com/OR/Portland/562-N-Blandena-St-97217/home/101096343,RMLS,19396741,N,Y,45.5567375,-122.6723081
PAST SALE,June-16-2020,Single Family Residential,5906 N Delaware Ave,Portland,OR,97217,500000,4,1.0,Portland North,2608,4791,1933,65,192,,Sold,,,http://www.redfin.com/OR/Portland/5906-N-Delaware-Ave-97217/home/26623066,RMLS,20198920,N,Y,45.5658075,-122.6922163
PAST SALE,July-31-2020,Single Family Residential,220 N Blandena St,Portland,OR,97217,509000,2,1.0,Mississippi/Williams,2123,3920,1910,20,240,,Sold,,,http://www.redfin.com/OR/Portland/220-N-Blandena-St-97217/home/25786233,RMLS,20421300,N,Y,45.556715,-122.6686192
PAST SALE,June-26-2020,Single Family Residential,4618 N Congress Ave,Portland,OR,97217,735000,3,3.5,HUMBOLDT,2609,2613,2007,55,282,,Sold,,,http://www.redfin.com/OR/Portland/4618-N-Congress-Ave-97217/home/25776569,RMLS,20549687,N,Y,45.556362,-122.6716446
PAST SALE,August-5-2020,Single Family Residential,2016 N Skidmore Ct,Portland,OR,97217,659000,4,2.5,OVERLOOK,2936,4791,1927,15,224,,Sold,,,http://www.redfin.com/OR/Portland/2016-N-Skidmore-Ct-97217/unit-A/home/26545816,RMLS,20441434,N,Y,45.5548396,-122.6885763
PAST SALE,August-7-2020,Single Family Residential,1540 N Church St,Portland,OR,97217,575000,3,2.0,OVERLOOK,2477,4791,1912,13,232,,Sold,,,http://www.redfin.com/OR/Portland/1540-N-Church-St-97217/home/26498342,RMLS,20520241,N,Y,45.5631321,-122.6832424
PAST SALE,July-24-2020,Single Family Residential,1551 N Skidmore St,Portland,OR,97217,668500,3,2.0,OVERLOOK,2924,4791,1911,27,229,,Sold,,,http://www.redfin.com/OR/Portland/1551-N-Skidmore-St-97217/home/26598237,RMLS,20588279,N,Y,45.5548873,-122.6831701
PAST SALE,,Single Family Residential,2156 N Willamette Blvd,Portland,OR,97217,,2,1.0,,1485,5000,1898,,,,Sold,,,http://www.redfin.com/OR/Portland/2156-N-Willamette-Blvd-97217/home/26516125,RMLS,,N,Y,45.5617687,-122.6898015
PAST SALE,July-21-2020,Single Family Residential,3218 N Arlington Pl,Portland,OR,97217,400000,3,2.5,Portland North,1313,2613,2004,30,305,,Sold,,,http://www.redfin.com/OR/Portland/3218-N-Arlington-Pl-97217/home/26439254,RMLS,20552029,N,Y,45.5831327,-122.7001991
PAST SALE,June-29-2020,Single Family Residential,7227 N Albina Ave,Portland,OR,97217,700000,5,3.5,PIEDMONT/ALBINA,2895,2613,2017,52,242,,Sold,,,http://www.redfin.com/OR/Portland/7227-N-Albina-Ave-97217/unit-A/home/49692098,RMLS,20642656,N,Y,45.575539,-122.675058
PAST SALE,June-2-2020,Single Family Residential,2228 N Farragut St,Portland,OR,97217,515000,3,2.0,Kenton,1886,3920,1925,79,273,,Sold,,,http://www.redfin.com/OR/Portland/2228-N-Farragut-St-97217/home/26652614,RMLS,20221934,N,Y,45.5786732,-122.6896942
PAST SALE,July-24-2020,Single Family Residential,7083 N Burrage Ave,Portland,OR,97217,570000,2,2.0,Arbor Lodge,1662,4791,1927,27,343,,Sold,,,http://www.redfin.com/OR/Portland/7083-N-Burrage-Ave-97217/home/26433175,RMLS,20060816,N,Y,45.5747936,-122.6947315
PAST SALE,July-17-2020,Single Family Residential,619 N Humboldt St,Portland,OR,97217,699000,3,2.0,HUMBOLDT,1881,3484,2006,34,372,,Sold,,,http://www.redfin.com/OR/Portland/619-N-Humboldt-St-97217/home/26590007,RMLS,20465899,N,Y,45.558466,-122.6734209
PAST SALE,July-29-2020,Single Family Residential,6369 N Commercial Ave,Portland,OR,97217,547500,2,1.0,PIEDMONT,1839,4791,1923,22,298,,Sold,,,http://www.redfin.com/OR/Portland/6369-N-Commercial-Ave-97217/home/26641333,RMLS,20209776,N,Y,45.5688256,-122.6715167
PAST SALE,July-16-2020,Single Family Residential,2305 N Dekum St,Portland,OR,97217,507500,3,1.5,ARBOR LODGE,1524,5662,1927,35,333,,Sold,,,http://www.redfin.com/OR/Portland/2305-N-Dekum-St-97217/home/26525316,RMLS,20644166,N,Y,45.5719048,-122.6906852
PAST SALE,June-10-2020,Single Family Residential,4505 N Mississippi Ave,Portland,OR,97217,370000,2,1.0,Portland North,1152,4791,1923,71,321,,Sold,,,http://www.redfin.com/OR/Portland/4505-N-Mississippi-Ave-97217/home/26298322,RMLS,20638156,N,Y,45.5555996,-122.6762036
PAST SALE,April-1-2020,Single Family Residential,6355 N Greeley Ave,Portland,OR,97217,440000,4,2.0,ARBOR LODGE,1929,4791,1906,141,228,,Sold,,,http://www.redfin.com/OR/Portland/6355-N-Greeley-Ave-97217/home/26506552,RMLS,19630496,N,Y,45.5690094,-122.6958301
PAST SALE,May-19-2020,Single Family Residential,6104 N Villard Ave,Portland,OR,97217,489000,3,1.0,ARBOR LODGE,2108,4791,1947,93,232,,Sold,,,http://www.redfin.com/OR/Portland/6104-N-Villard-Ave-97217/home/26339488,RMLS,20535950,N,Y,45.5670854,-122.6973379
PAST SALE,February-27-2020,Single Family Residential,8947 N Curtis Ave,Portland,OR,97217,385100,3,1.0,KENTON,976,4791,1955,175,395,,Sold,,,http://www.redfin.com/OR/Portland/8947-N-Curtis-Ave-97217/home/26311402,RMLS,19432397,N,Y,45.5877534,-122.6987235
PAST SALE,February-28-2020,Single Family Residential,2719 N Farragut St,Portland,OR,97217,464000,4,2.0,KENTON,2593,4791,1913,174,179,,Sold,,,http://www.redfin.com/OR/Portland/2719-N-Farragut-St-97217/home/26618959,RMLS,20106545,N,Y,45.5793111,-122.6952739
PAST SALE,March-13-2020,Single Family Residential,6837 N Montana Ave,Portland,OR,97217,540000,2,1.0,ARBOR LODGE,1461,7405,1926,160,370,,Sold,,,http://www.redfin.com/OR/Portland/6837-N-Montana-Ave-97217/home/26362016,RMLS,19402782,N,Y,45.5723929,-122.6801286
PAST SALE,,Single Family Residential,9312 N Chautauqua Blvd,Portland,OR,97217,255000,2,1.0,,960,5000,1925,,266,,,,,http://www.redfin.com/OR/Portland/9312-N-Chautauqua-Blvd-97217/home/26323577,,,N,Y,45.5903851,-122.7050178
PAST SALE,June-8-2020,Single Family Residential,8827 N Calvert Ave,Portland,OR,97217,420000,2,2.0,Portland North,1395,4791,1914,73,301,,Sold,,,http://www.redfin.com/OR/Portland/8827-N-Calvert-Ave-97217/home/26607499,RMLS,20348785,N,Y,45.5865157,-122.6964233
PAST SALE,June-18-2020,Single Family Residential,3305 N Arlington Pl,Portland,OR,97217,451000,3,2.5,KENTON,1550,4356,2002,63,291,,Sold,,,http://www.redfin.com/OR/Portland/3305-N-Arlington-Pl-97217/home/26537655,RMLS,20426794,N,Y,45.5834729,-122.7009025
PAST SALE,April-7-2020,Single Family Residential,7828 N Washburne Ave,Portland,OR,97217,510000,3,2.0,Portland North,2019,6098,1955,135,253,,Sold,,,http://www.redfin.com/OR/Portland/7828-N-Washburne-Ave-97217/home/26369202,RMLS,20565524,N,Y,45.5801517,-122.7050945
PAST SALE,July-29-2020,Single Family Residential,3320 N Arlington Pl,Portland,OR,97217,425000,3,2.5,KENTON,1376,2613,2009,22,309,,Sold,,,http://www.redfin.com/OR/Portland/3320-N-Arlington-Pl-97217/home/25841444,RMLS,20416356,N,Y,45.5831333,-122.7011593
PAST SALE,July-1-2020,Single Family Residential,5643 N Burrage Ave,Portland,OR,97217,556000,3,1.0,OVERLOOK / ARBOR LODGE,2600,4791,1938,50,214,,Sold,,,http://www.redfin.com/OR/Portland/5643-N-Burrage-Ave-97217/home/26488415,RMLS,20072161,N,Y,45.5642888,-122.6948657
PAST SALE,August-5-2020,Single Family Residential,8756 N Chautauqua Blvd,Portland,OR,97217,520000,3,2.0,KENTON,1491,6969,1961,15,349,,Sold,,,http://www.redfin.com/OR/Portland/8756-N-Chautauqua-Blvd-97217/home/26477536,RMLS,20066198,N,Y,45.5859128,-122.706382
PAST SALE,June-30-2020,Single Family Residential,6625 N Boston Ave,Portland,OR,97217,548500,3,1.5,Portland North,2478,7405,1962,51,221,,Sold,,,http://www.redfin.com/OR/Portland/6625-N-Boston-Ave-97217/home/26523795,RMLS,20684557,N,Y,45.5712617,-122.69176
PAST SALE,May-19-2020,Single Family Residential,6845 N Concord Ave,Portland,OR,97217,494500,3,2.0,ARBOR LODGE,1638,4791,1949,93,302,,Sold,,,http://www.redfin.com/OR/Portland/6845-N-Concord-Ave-97217/home/26553610,RMLS,20181549,N,Y,45.5723824,-122.6845143
PAST SALE,June-12-2020,Single Family Residential,7114 N Omaha Ave,Portland,OR,97217,625000,4,2.5,Portland North,2262,3920,2016,69,276,,Sold,,,http://www.redfin.com/OR/Portland/7114-N-Omaha-Ave-97217/home/26635629,RMLS,20231812,N,Y,45.5745475,-122.6900921
PAST SALE,June-29-2020,Single Family Residential,1016 N Simpson St,Portland,OR,97217,426500,4,2.0,Portland North,1584,2613,1921,52,269,,Sold,,,http://www.redfin.com/OR/Portland/1016-N-Simpson-St-97217/home/25754882,RMLS,20666959,N,Y,45.565395,-122.6773406
PAST SALE,April-1-2020,Single Family Residential,4613 N Haight Ave,Portland,OR,97217,615000,3,1.5,HUMBOLDT,2590,4791,1927,141,237,,Sold,,,http://www.redfin.com/OR/Portland/4613-N-Haight-Ave-97217/home/26549940,RMLS,20030890,N,Y,45.5562573,-122.6703036
PAST SALE,May-27-2020,Single Family Residential,7615 N Interstate Ave,Portland,OR,97217,445000,4,1.5,KENTON,2799,5227,1929,85,159,,Sold,,,http://www.redfin.com/OR/Portland/7615-N-Interstate-Ave-97217/home/25861422,RMLS,20174520,N,Y,45.5783863,-122.6825058
PAST SALE,July-8-2020,Single Family Residential,224 N Russet St,Portland,OR,97217,406000,2,1.0,PIEDMONT,2584,4791,1939,43,157,,Sold,,,http://www.redfin.com/OR/Portland/224-N-Russet-St-97217/home/26363684,RMLS,20664699,N,Y,45.5777469,-122.6689709
PAST SALE,August-5-2020,Single Family Residential,1626 N Willamette Blvd,Portland,OR,97217,655000,4,2.0,Portland North,2392,3920,1921,15,274,,Sold,,,http://www.redfin.com/OR/Portland/1626-N-Willamette-Blvd-97217/home/26558990,RMLS,20101351,N,Y,45.5617353,-122.6840062
PAST SALE,August-5-2020,Single Family Residential,625 N Winchell St,Portland,OR,97217,575000,4,2.5,Piedmont,2890,3484,2012,15,199,,Sold,,,http://www.redfin.com/OR/Portland/625-N-Winchell-St-97217/home/45401005,RMLS,20541484,N,Y,45.5808456,-122.6730128
PAST SALE,August-7-2020,Single Family Residential,1918 N Prescott St,Portland,OR,97217,490000,3,1.0,Portland North,2164,4791,1907,13,226,,Sold,,,http://www.redfin.com/OR/Portland/1918-N-Prescott-St-97217/home/26308884,RMLS,20594384,N,Y,45.5552331,-122.6870932
PAST SALE,August-17-2020,Single Family Residential,6417 N Vancouver Ave,Portland,OR,97217,464200,2,1.0,Portland North,1592,4791,1940,3,292,,Sold,,,http://www.redfin.com/OR/Portland/6417-N-Vancouver-Ave-97217/home/26603282,RMLS,20577733,N,Y,45.5693022,-122.6691637
PAST SALE,February-28-2020,Single Family Residential,7932 N Seward Ave,Portland,OR,97217,474900,3,2.5,Kenton,1817,3049,2009,174,261,,Sold,,,http://www.redfin.com/OR/Portland/7932-N-Seward-Ave-97217/home/25810842,RMLS,20074894,N,Y,45.5811216,-122.7033554
PAST SALE,February-27-2020,Single Family Residential,515 N Ainsworth St,Portland,OR,97217,575000,4,2.0,PIEDMONT/ALBINA,2314,4791,1925,175,248,,Sold,,,http://www.redfin.com/OR/Portland/515-N-Ainsworth-St-97217/home/25840407,RMLS,20061666,N,Y,45.5666484,-122.6716349
PAST SALE,February-27-2020,Single Family Residential,1102 N Winchell St,Portland,OR,97217,333900,1,1.0,Piedmont,1502,2613,1910,175,222,,Sold,,,http://www.redfin.com/OR/Portland/1102-N-Winchell-St-97217/home/25759566,RMLS,19116691,N,Y,45.580515,-122.6777605
PAST SALE,,Single Family Residential,8005 N Seward Ave,Portland,OR,97217,395000,3,1.0,,1026,5280,1951,,385,,,,,http://www.redfin.com/OR/Portland/8005-N-Seward-Ave-97217/home/26480936,,,N,Y,45.5814552,-122.7038548
PAST SALE,,Single Family Residential,6417 N Detroit Ave,Portland,OR,97217,387000,2,1.5,,891,5000,1951,,434,,,,,http://www.redfin.com/OR/Portland/6417-N-Detroit-Ave-97217/home/25736733,,,N,Y,45.5693315,-122.6889268
PAST SALE,March-5-2020,Single Family Residential,6505 N Knowles Ave,Portland,OR,97217,442500,2,1.0,ARBOR LODGE,1532,5662,1943,168,289,,Sold,,,http://www.redfin.com/OR/Portland/6505-N-Knowles-Ave-97217/home/26540106,RMLS,20489369,N,Y,45.5702621,-122.699588
PAST SALE,March-6-2020,Single Family Residential,2626 N Willis Blvd,Portland,OR,97217,530000,3,2.0,Portland North,1297,4791,1922,167,409,,Sold,,,http://www.redfin.com/OR/Portland/2626-N-Willis-Blvd-97217/home/26465363,RMLS,20188218,N,Y,45.5836144,-122.6940483
PAST SALE,March-23-2020,Single Family Residential,2447 N Watts St,Portland,OR,97217,451000,3,1.0,KENTON,1060,5662,1954,150,425,,Sold,,,http://www.redfin.com/OR/Portland/2447-N-Watts-St-97217/home/26508506,RMLS,20248759,N,Y,45.5811213,-122.6921976
PAST SALE,June-17-2020,Single Family Residential,6916 N Fenwick Ave,Portland,OR,97217,480000,2,1.0,ARBOR LODGE,1320,4791,1929,64,364,,Sold,,,http://www.redfin.com/OR/Portland/6916-N-Fenwick-Ave-97217/home/26500906,RMLS,20587317,N,Y,45.5728552,-122.6849967
PAST SALE,June-26-2020,Single Family Residential,7552 N Denver Ave,Portland,OR,97217,505000,4,2.0,Portland North,2547,5227,1926,55,198,,Sold,,,http://www.redfin.com/OR/Portland/7552-N-Denver-Ave-97217/home/26493489,RMLS,20317264,N,Y,45.5779332,-122.6866129
PAST SALE,July-17-2020,Single Family Residential,1909 N Skidmore St,Portland,OR,97217,629000,5,4.0,Overlook,3017,6098,1927,34,208,,Sold,,,http://www.redfin.com/OR/Portland/1909-N-Skidmore-St-97217/unit-A/home/26403676,RMLS,20125864,N,Y,45.5548678,-122.6873344
PAST SALE,July-21-2020,Single Family Residential,7014 N Vancouver Ave,Portland,OR,97217,420000,4,1.5,PIEDMONT,2100,4791,1947,30,200,,Sold,,,http://www.redfin.com/OR/Portland/7014-N-Vancouver-Ave-97217/home/26525306,RMLS,20360421,N,Y,45.5736176,-122.6685035
PAST SALE,,Single Family Residential,6822 N Interstate Ave,Portland,OR,97217,283250,1,1.0,,756,3333,1926,,375,,,,,http://www.redfin.com/OR/Portland/6822-N-Interstate-Ave-97217/home/26609422,,,N,Y,45.5720891,-122.6817405
PAST SALE,July-8-2020,Single Family Residential,6625 N Fenwick Ave,Portland,OR,97217,550000,3,2.0,ARBOR LODGE,1532,4791,1926,43,359,,Sold,,,http://www.redfin.com/OR/Portland/6625-N-Fenwick-Ave-97217/home/26337592,RMLS,20153335,N,Y,45.5711926,-122.685562
PAST SALE,July-16-2020,Single Family Residential,9028 N Chautauqua Pl,Portland,OR,97217,400000,3,1.0,PORTSMOUTH,858,7405,1970,35,466,,Sold,,,http://www.redfin.com/OR/Portland/9028-N-Chautauqua-Pl-97217/home/26524157,RMLS,20438758,N,Y,45.5884509,-122.7075808
PAST SALE,June-4-2020,Single Family Residential,551 N Marine Dr,Portland,OR,97217,301000,2,1.0,BRIDGETON,937,6098,1944,77,321,,Sold,,,http://www.redfin.com/OR/Portland/551-N-Marine-Dr-97217/home/26406704,RMLS,20015464,N,Y,45.6024427,-122.6716649
PAST SALE,June-5-2020,Single Family Residential,2221 N Schofield St,Portland,OR,97217,531000,2,2.0,Kenton,1938,4791,1928,76,274,,Sold,,,http://www.redfin.com/OR/Portland/2221-N-Schofield-St-97217/home/26312354,RMLS,20202777,N,Y,45.5818606,-122.6895405
PAST SALE,March-20-2020,Single Family Residential,418 N Holland St,Portland,OR,97217,447000,2,1.5,PIEDMONT,1686,4791,1938,153,265,,Sold,,,http://www.redfin.com/OR/Portland/418-N-Holland-St-97217/home/26317520,RMLS,20315865,N,Y,45.5756158,-122.6703565
PAST SALE,April-29-2020,Single Family Residential,1915 N Watts St,Portland,OR,97217,432000,4,2.0,KENTON,2540,3484,1911,113,170,,Sold,,,http://www.redfin.com/OR/Portland/1915-N-Watts-St-97217/home/26312272,RMLS,20603515,N,Y,45.5811397,-122.6861106
PAST SALE,,Single Family Residential,7939 N Fowler Ave,Portland,OR,97217,400000,3,1.0,,960,6720,1955,,417,,,,,http://www.redfin.com/OR/Portland/7939-N-Fowler-Ave-97217/home/26475434,,,N,Y,45.5813727,-122.706965
PAST SALE,July-9-2020,Single Family Residential,1837 N Willamette Blvd,Portland,OR,97217,675000,5,3.0,OVERLOOK / ARBOR LODGE,3216,3920,1914,42,210,,Sold,,,http://www.redfin.com/OR/Portland/1837-N-Willamette-Blvd-97217/home/26559578,RMLS,20473870,N,Y,45.5622353,-122.6864232
PAST SALE,March-9-2020,Single Family Residential,7141 N Campbell Ave,Portland,OR,97217,309000,1,1.0,ARBOR LODGE,906,2613,1923,164,341,,Sold,,,http://www.redfin.com/OR/Portland/7141-N-Campbell-Ave-97217/home/26411737,RMLS,20521335,N,Y,45.5750064,-122.6865325
PAST SALE,April-6-2020,Single Family Residential,8875 N Wilbur Ave,Portland,OR,97217,390000,4,2.5,Portland North,1550,2613,2001,136,252,,Sold,,,http://www.redfin.com/OR/Portland/8875-N-Wilbur-Ave-97217/home/26609304,RMLS,20178343,N,Y,45.587161,-122.69446
PAST SALE,June-23-2020,Single Family Residential,3018 N Trenton St,Portland,OR,97217,370000,3,1.0,KENTON,1588,5662,1911,58,233,,Sold,,,http://www.redfin.com/OR/Portland/3018-N-Trenton-St-97217/home/26346324,RMLS,20653353,N,Y,45.5884228,-122.6976639
PAST SALE,June-15-2020,Single Family Residential,7138 N Knowles Ave,Portland,OR,97217,610000,3,2.0,ARBOR LODGE,2162,7405,1925,66,282,,Sold,,,http://www.redfin.com/OR/Portland/7138-N-Knowles-Ave-97217/home/26539295,RMLS,20353333,N,Y,45.575204,-122.6990955
PAST SALE,July-27-2020,Single Family Residential,8891 N Drummond Ave,Portland,OR,97217,515000,3,2.5,KENTON,1671,2613,2017,24,308,,Sold,,,http://www.redfin.com/OR/Portland/8891-N-Drummond-Ave-97217/home/143049797,RMLS,20096327,N,Y,45.5870004,-122.699768
PAST SALE,April-14-2020,Single Family Residential,8437 N Burrage Ave,Portland,OR,97217,615000,4,3.5,KENTON,2353,,2020,128,261,,Sold,,,http://www.redfin.com/OR/Portland/8437-N-Burrage-Ave-97217/home/170025644,RMLS,20050688,N,Y,45.5840363,-122.6950317
PAST SALE,April-6-2020,Single Family Residential,2637 N Farragut St,Portland,OR,97217,396000,2,1.0,Portland North,856,4791,1949,136,463,,Sold,,,http://www.redfin.com/OR/Portland/2637-N-Farragut-St-97217/home/25864057,RMLS,20079912,N,Y,45.5792847,-122.6944584
PAST SALE,May-14-2020,Single Family Residential,7315 N Williams Ave,Portland,OR,97217,460000,4,2.0,Piedmont,2152,4791,1943,98,214,,Sold,,,http://www.redfin.com/OR/Portland/7315-N-Williams-Ave-97217/home/26363489,RMLS,20663817,N,Y,45.5760656,-122.6670275
PAST SALE,,Single Family Residential,3519 N Willis Blvd,Portland,OR,97217,331200,2,1.0,,913,3150,1925,,363,,,,,http://www.redfin.com/OR/Portland/3519-N-Willis-Blvd-97217/home/26495319,,,N,Y,45.5842395,-122.7029709
PAST SALE,July-2-2020,Single Family Residential,6710 N Curtis Ave,Portland,OR,97217,611000,3,2.0,Portland North,1814,6534,1940,49,337,,Sold,,,http://www.redfin.com/OR/Portland/6710-N-Curtis-Ave-97217/home/26517369,RMLS,20018013,N,Y,45.5712851,-122.6979707
PAST SALE,May-27-2020,Single Family Residential,7035 N Greeley Ave,Portland,OR,97217,372000,2,1.0,ARBOR LODGE,1348,4791,1923,85,276,,Sold,,,http://www.redfin.com/OR/Portland/7035-N-Greeley-Ave-97217/home/26507526,RMLS,20342825,N,Y,45.5741245,-122.6957908
PAST SALE,August-14-2020,Single Family Residential,7015 N Greenwich Ave,Portland,OR,97217,550000,5,2.0,Portland North,2277,4791,1944,6,242,,Sold,,,http://www.redfin.com/OR/Portland/7015-N-Greenwich-Ave-97217/home/26319103,RMLS,20289775,N,Y,45.5738085,-122.6834677
PAST SALE,August-6-2020,Single Family Residential,7062 N Villard Ave,Portland,OR,97217,412000,2,1.0,Portland North,806,4791,1949,14,511,,Sold,,,http://www.redfin.com/OR/Portland/7062-N-Villard-Ave-97217/home/26609424,RMLS,20230793,N,Y,45.5745364,-122.6972966
PAST SALE,August-3-2020,Single Family Residential,6523 N Fenwick Ave,Portland,OR,97217,500000,4,1.5,Portland North,2588,4791,1946,17,193,,Sold,,,http://www.redfin.com/OR/Portland/6523-N-Fenwick-Ave-97217/home/26337587,RMLS,20689025,N,Y,45.5703675,-122.6855686
PAST SALE,August-7-2020,Single Family Residential,6352 N Delaware Ave,Portland,OR,97217,647500,3,2.5,ARBOR LODGE,1932,4791,2006,13,335,,Sold,,,http://www.redfin.com/OR/Portland/6352-N-Delaware-Ave-97217/home/25754255,RMLS,20511022,N,Y,45.5689714,-122.6922294
PAST SALE,August-7-2020,Single Family Residential,2103 N Liberty St,Portland,OR,97217,496875,3,1.0,ARBOR LODGE,2053,8712,1915,13,242,,Sold,,,http://www.redfin.com/OR/Portland/2103-N-Liberty-St-97217/home/26509424,RMLS,20500295,N,Y,45.571007,-122.6884494
PAST SALE,August-7-2020,Single Family Residential,9224 N Chase Ave,Portland,OR,97217,343000,3,1.0,KENTON,928,4791,1955,13,370,,Sold,,,http://www.redfin.com/OR/Portland/9224-N-Chase-Ave-97217/home/26488338,RMLS,20545212,N,Y,45.589645,-122.7040851
PAST SALE,,Single Family Residential,6606 N Maryland Ave,Portland,OR,97217,546500,2,1.0,,810,7334,1926,,675,,,,,http://www.redfin.com/OR/Portland/6606-N-Maryland-Ave-97217/home/26323760,,,N,Y,45.5710626,-122.6807075
PAST SALE,July-7-2020,Single Family Residential,7145 N Concord Ave,Portland,OR,97217,575000,3,2.0,ARBOR LODGE,1964,4791,1928,44,293,,Sold,,,http://www.redfin.com/OR/Portland/7145-N-Concord-Ave-97217/home/26605181,RMLS,20554633,N,Y,45.5750712,-122.6845023
PAST SALE,July-7-2020,Single Family Residential,7676 N Washburne Ave,Portland,OR,97217,465000,3,2.0,Kenton,1986,3920,1927,44,234,,Sold,,,http://www.redfin.com/OR/Portland/7676-N-Washburne-Ave-97217/home/26424471,RMLS,20439253,N,Y,45.5790579,-122.70504
PAST SALE,August-19-2020,Single Family Residential,2425 N Watts St,Portland,OR,97217,530000,4,2.0,Portland North,2036,4791,1956,1,260,,Sold,,,http://www.redfin.com/OR/Portland/2425-N-Watts-St-97217/home/26312368,RMLS,20124492,N,Y,45.5811307,-122.6917834
PAST SALE,July-2-2020,Single Family Residential,8606 N Endicott Ave,Portland,OR,97217,395000,3,2.5,KENTON,1478,2613,2004,49,267,,Sold,,,http://www.redfin.com/OR/Portland/8606-N-Endicott-Ave-97217/home/26548955,RMLS,20609950,N,Y,45.5851964,-122.7011435
PAST SALE,June-5-2020,Single Family Residential,5729 N Wilbur Ave,Portland,OR,97217,635000,5,3.0,OVERLOOK NEIGHBORHOOD,2153,4791,1912,76,295,,Sold,,,http://www.redfin.com/OR/Portland/5729-N-Wilbur-Ave-97217/unit-A/home/26478671,RMLS,20662976,N,Y,45.565126,-122.6938275
PAST SALE,May-12-2020,Single Family Residential,5835 N Wilbur Ave,Portland,OR,97217,520000,4,1.0,OVERLOOK,2626,4791,1912,100,198,,Sold,,,http://www.redfin.com/OR/Portland/5835-N-Wilbur-Ave-97217/unit-A/home/26492736,RMLS,20661919,N,Y,45.5656662,-122.6938109
PAST SALE,June-26-2020,Single Family Residential,9101 N Drummond Ave,Portland,OR,97217,370000,3,2.5,KENTON,1524,2613,2004,55,243,,Sold,,,http://www.redfin.com/OR/Portland/9101-N-Drummond-Ave-97217/home/26554641,RMLS,20197131,N,Y,45.5886797,-122.6997175
PAST SALE,July-3-2020,Single Family Residential,195 N Lotus Beach Dr,Portland,OR,97217,533000,3,3.0,HAYDEN BAY MARINA,2846,4791,1982,48,187,300,Sold,,,http://www.redfin.com/OR/Portland/195-N-Lotus-Beach-Dr-97217/home/26498174,RMLS,20256284,N,Y,45.6073499,-122.6687921
PAST SALE,June-12-2020,Single Family Residential,8269 N Chautauqua Blvd,Portland,OR,97217,345000,4,2.0,PORTSMOUTH,1638,5662,1941,69,211,,Sold,,,http://www.redfin.com/OR/Portland/8269-N-Chautauqua-Blvd-97217/home/25836154,RMLS,20612265,N,Y,45.5832179,-122.7082693
PAST SALE,June-26-2020,Single Family Residential,1644 N Jarrett St,Portland,OR,97217,432000,3,1.0,OVERLOOK,1224,4356,1927,55,353,,Sold,,,http://www.redfin.com/OR/Portland/1644-N-Jarrett-St-97217/home/26308011,RMLS,20298291,N,Y,45.5646502,-122.6844096
PAST SALE,June-26-2020,Single Family Residential,7041 N Greenwich Ave,Portland,OR,97217,499000,3,2.5,Portland North,1689,2613,2014,55,295,,Sold,,,http://www.redfin.com/OR/Portland/7041-N-Greenwich-Ave-97217/home/55633161,RMLS,20474320,N,Y,45.5741742,-122.6835464
PAST SALE,July-9-2020,Single Family Residential,3286 N Terry St,Portland,OR,97217,552000,3,2.0,KENTON,2048,5662,1926,42,270,,Sold,,,http://www.redfin.com/OR/Portland/3286-N-Terry-St-97217/home/26597766,RMLS,20407689,N,Y,45.5796963,-122.7007429
PAST SALE,June-10-2020,Single Family Residential,7843 N Wabash Ave,Portland,OR,97217,374950,3,1.0,Portland North,1752,3484,1927,71,214,,Sold,,,http://www.redfin.com/OR/Portland/7843-N-Wabash-Ave-97217/home/26572300,RMLS,20142223,N,Y,45.5803512,-122.7029343
PAST SALE,June-8-2020,Single Family Residential,6818 N Campbell Ave,Portland,OR,97217,530000,3,2.0,Portland North,1874,4791,1951,73,283,,Sold,,,http://www.redfin.com/OR/Portland/6818-N-Campbell-Ave-97217/home/25833903,RMLS,20352908,N,Y,45.5719921,-122.6860199
PAST SALE,June-8-2020,Single Family Residential,3622 N Farragut St,Portland,OR,97217,535000,4,2.5,Columbia Park,3111,4791,1914,73,172,,Sold,,,http://www.redfin.com/OR/Portland/3622-N-Farragut-St-97217/home/26527982,RMLS,20179237,N,Y,45.5791545,-122.7040979
PAST SALE,May-29-2020,Single Family Residential,4548 N Michigan Ave,Portland,OR,97217,588000,5,2.0,Portland North,3679,7405,1915,83,160,,Sold,,,http://www.redfin.com/OR/Portland/4548-N-Michigan-Ave-97217/home/26359996,RMLS,20441071,N,Y,45.5561725,-122.6767258
PAST SALE,June-30-2020,Single Family Residential,7924 N Brandon Ave,Portland,OR,97217,538000,2,3.0,KENTON,2227,3484,1927,51,242,,Sold,,,http://www.redfin.com/OR/Portland/7924-N-Brandon-Ave-97217/home/26314310,RMLS,20419448,N,Y,45.5806433,-122.6888128
PAST SALE,June-10-2020,Single Family Residential,710 N Buffalo St,Portland,OR,97217,434000,3,2.0,PIEDMONT,1203,4791,1925,71,361,,Sold,,,http://www.redfin.com/OR/Portland/710-N-Buffalo-St-97217/home/26564357,RMLS,20466675,N,Y,45.5749525,-122.6739975
PAST SALE,July-30-2020,Single Family Residential,2135 N Alberta St,Portland,OR,97217,590000,4,2.0,Overlook,2404,5227,1931,21,245,,Sold,,,http://www.redfin.com/OR/Portland/2135-N-Alberta-St-97217/home/26333132,RMLS,20129313,N,Y,45.5592584,-122.6894197
PAST SALE,July-31-2020,Single Family Residential,5205 N Gay Ave,Portland,OR,97217,505000,2,1.0,OVERLOOK,1815,4791,1926,20,278,,Sold,,,http://www.redfin.com/OR/Portland/5205-N-Gay-Ave-97217/home/26519534,RMLS,20512017,N,Y,45.5607081,-122.6902864
PAST SALE,June-15-2020,Single Family Residential,345 N Lotus Beach Dr,Portland,OR,97217,575000,2,2.5,Portland North,3060,4791,1982,66,188,381,Sold,,,http://www.redfin.com/OR/Portland/345-N-Lotus-Beach-Dr-97217/home/26386600,RMLS,19130606,N,Y,45.6072378,-122.6706751
PAST SALE,June-24-2020,Single Family Residential,6025 N Villard Ave,Portland,OR,97217,460000,3,2.0,ARBOR LODGE,2309,4791,1928,57,199,,Sold,,,http://www.redfin.com/OR/Portland/6025-N-Villard-Ave-97217/home/26337551,RMLS,20319613,N,Y,45.5668172,-122.6979171
PAST SALE,June-17-2020,Single Family Residential,5520 N Concord Ave,Portland,OR,97217,499900,4,2.0,OVERLOOK / ARBOR LODGE,2596,4791,1957,64,193,,Sold,,,http://www.redfin.com/OR/Portland/5520-N-Concord-Ave-97217/home/26535132,RMLS,20404471,N,Y,45.5631331,-122.684522
PAST SALE,August-3-2020,Single Family Residential,3368 N Farragut St,Portland,OR,97217,425000,2,1.0,KENTON,1733,3484,1926,17,245,,Sold,,,http://www.redfin.com/OR/Portland/3368-N-Farragut-St-97217/home/26555574,RMLS,20600471,N,Y,45.5790076,-122.7018306
PAST SALE,July-7-2020,Single Family Residential,6025 N Burrage Ave,Portland,OR,97217,385000,2,1.0,Portland North,784,4791,1949,44,491,,Sold,,,http://www.redfin.com/OR/Portland/6025-N-Burrage-Ave-97217/home/26621189,RMLS,20575581,N,Y,45.5668088,-122.6948339
PAST SALE,July-20-2020,Single Family Residential,2704 N Terry St,Portland,OR,97217,610000,3,2.0,KENTON,2610,4791,1914,31,234,,Sold,,,http://www.redfin.com/OR/Portland/2704-N-Terry-St-97217/unit-A/home/26463181,RMLS,20026431,N,Y,45.5796605,-122.695083
PAST SALE,July-31-2020,Single Family Residential,7205 N Washburne Ave,Portland,OR,97217,708000,3,3.0,Mock's Crest,2623,4791,1926,20,270,,Sold,,,http://www.redfin.com/OR/Portland/7205-N-Washburne-Ave-97217/home/26589172,RMLS,20388090,N,Y,45.5752985,-122.7061098
PAST SALE,,Single Family Residential,5515 N Omaha Ave,Portland,OR,97217,557500,2,2.0,,1682,10000,1910,,331,,,,,http://www.redfin.com/OR/Portland/5515-N-Omaha-Ave-97217/home/26645346,,,N,Y,45.5630244,-122.6906322
PAST SALE,July-6-2020,Single Family Residential,8937 N Peninsular Ave,Portland,OR,97217,425000,3,1.0,Kenton,1100,4791,1968,45,386,,Sold,,,http://www.redfin.com/OR/Portland/8937-N-Peninsular-Ave-97217/home/25750542,RMLS,20302775,N,Y,45.5876168,-122.6974818
PAST SALE,July-8-2020,Single Family Residential,6615 N Curtis Ave,Portland,OR,97217,573000,3,2.0,ARBOR LODGE,2256,3484,1943,43,254,,Sold,,,http://www.redfin.com/OR/Portland/6615-N-Curtis-Ave-97217/home/69096453,RMLS,20627424,N,Y,45.5707936,-122.6984765
PAST SALE,July-17-2020,Single Family Residential,7214 N Albina Ave,Portland,OR,97217,350000,1,1.0,Portland North,1187,4791,1922,34,295,,Sold,,,http://www.redfin.com/OR/Portland/7214-N-Albina-Ave-97217/home/26425556,RMLS,20190190,N,Y,45.5753866,-122.6745366
PAST SALE,,Single Family Residential,1607 N Schofield St,Portland,OR,97217,370000,2,1.0,,816,5000,1925,,453,,,,,http://www.redfin.com/OR/Portland/1607-N-Schofield-St-97217/home/26499671,,,N,Y,45.5818364,-122.6831683
PAST SALE,June-25-2020,Single Family Residential,6626 N Fenwick Ave,Portland,OR,97217,479410,3,2.0,ARBOR LODGE,1500,4791,1926,56,320,,Sold,,,http://www.redfin.com/OR/Portland/6626-N-Fenwick-Ave-97217/home/26474696,RMLS,20192969,N,Y,45.571231,-122.6850253
PAST SALE,May-15-2020,Single Family Residential,2821 N Kilpatrick St,Portland,OR,97217,365000,2,1.0,KENTON,1197,4791,1900,97,305,,Sold,,,http://www.redfin.com/OR/Portland/2821-N-Kilpatrick-St-97217/home/26495367,RMLS,20579519,N,Y,45.5821998,-122.6960517
PAST SALE,March-2-2020,Single Family Residential,7916 N Seward Ave,Portland,OR,97217,457000,3,3.0,KENTON,1698,4356,1928,171,269,,Sold,,,http://www.redfin.com/OR/Portland/7916-N-Seward-Ave-97217/home/26596471,RMLS,20306062,N,Y,45.580853,-122.7032945
PAST SALE,May-29-2020,Single Family Residential,8945 N Bayard Ave,Portland,OR,97217,500000,4,2.5,Portland North,2546,4791,1896,83,196,,Sold,,,http://www.redfin.com/OR/Portland/8945-N-Bayard-Ave-97217/home/26509088,RMLS,20363449,N,Y,45.5877707,-122.7005937
PAST SALE,March-5-2020,Single Family Residential,8358 N Fowler Ave,Portland,OR,97217,475999,3,3.0,Kenton/University Park,1479,3049,2019,168,322,,Sold,,,http://www.redfin.com/OR/Portland/8358-N-Fowler-Ave-97217/home/170121713,RMLS,19130106,N,Y,45.5836785,-122.7066083
PAST SALE,June-18-2020,Single Family Residential,7404 N Wabash Ave,Portland,OR,97217,620000,5,3.0,Portland North,2732,5662,1907,63,227,,Sold,,,http://www.redfin.com/OR/Portland/7404-N-Wabash-Ave-97217/home/26437396,RMLS,20433429,N,Y,45.576552,-122.7024611
PAST SALE,July-13-2020,Single Family Residential,8601 N Hamlin Ave,Portland,OR,97217,395000,2,1.0,Portland North,1320,7405,1943,38,299,,Sold,,,http://www.redfin.com/OR/Portland/8601-N-Hamlin-Ave-97217/home/26416389,RMLS,20024653,N,Y,45.5850241,-122.7026104
PAST SALE,,Single Family Residential,328 N Rosa Parks Way,Portland,OR,97217,350000,2,1.0,,816,6575,1924,,429,,,,,http://www.redfin.com/OR/Portland/328-N-Rosa-Parks-Way-97217/home/26494754,,,N,Y,45.5697364,-122.6698625
PAST SALE,,Single Family Residential,7016 N Haight Ave,Portland,OR,97217,,4,1.0,,1245,5000,1938,,,,Sold,,,http://www.redfin.com/OR/Portland/7016-N-Haight-Ave-97217/home/26669904,RMLS,,N,Y,45.5736251,-122.6695071
PAST SALE,February-27-2020,Single Family Residential,8168 N Delaware Ave,Portland,OR,97217,669900,4,3.5,Kenton,2430,,2019,175,276,,Sold,,,http://www.redfin.com/OR/Portland/8168-N-Delaware-Ave-97217/home/170024619,RMLS,19188032,N,Y,45.5819804,-122.6921894
PAST SALE,April-15-2020,Single Family Residential,5547 N Gay Ave,Portland,OR,97217,562000,3,1.5,OVERLOOK,2435,4791,1894,127,231,,Sold,,,http://www.redfin.com/OR/Portland/5547-N-Gay-Ave-97217/home/26563541,RMLS,20115103,N,Y,45.5634247,-122.6895125
PAST SALE,,Single Family Residential,633 N Sumner St,Portland,OR,97217,700000,4,1.0,,1540,5000,1917,,455,,,,,http://www.redfin.com/OR/Portland/633-N-Sumner-St-97217/home/26525266,,,N,Y,45.5606334,-122.6737167
PAST SALE,March-26-2020,Single Family Residential,1407 N Russet St,Portland,OR,97217,430000,3,2.0,Kenton,1488,4791,1927,147,289,,Sold,,,http://www.redfin.com/OR/Portland/1407-N-Russet-St-97217/home/26626529,RMLS,20409182,N,Y,45.5781005,-122.6812154
PAST SALE,July-23-2020,Single Family Residential,305 N Morgan St,Portland,OR,97217,472000,3,1.5,PIEDMONT,1664,4791,1929,28,284,,Sold,,,http://www.redfin.com/OR/Portland/305-N-Morgan-St-97217/home/25834756,RMLS,20502997,N,Y,45.574573,-122.6693738
PAST SALE,June-15-2020,Single Family Residential,1615 N Winchell St,Portland,OR,97217,386000,3,2.0,Portland North,1050,4791,1978,66,368,,Sold,,,http://www.redfin.com/OR/Portland/1615-N-Winchell-St-97217/home/26604722,RMLS,20176001,N,Y,45.5804677,-122.6833298
PAST SALE,June-18-2020,Single Family Residential,549 N Morgan St,Portland,OR,97217,586000,3,2.0,PIEDMONT,1978,5662,1917,63,296,,Sold,,,http://www.redfin.com/OR/Portland/549-N-Morgan-St-97217/home/26554052,RMLS,20568990,N,Y,45.5745946,-122.671745
PAST SALE,April-17-2020,Single Family Residential,5723 N Wilbur Ave,Portland,OR,97217,532000,3,1.5,OVERLOOK / ARBOR LODGE,1888,4791,1912,125,282,,Sold,,,http://www.redfin.com/OR/Portland/5723-N-Wilbur-Ave-97217/home/25756037,RMLS,20102615,N,Y,45.564961,-122.6938288
PAST SALE,March-2-2020,Single Family Residential,414 N Rosa Parks Way,Portland,OR,97217,385000,2,1.0,Portland North,1392,3049,1927,171,277,,Sold,,,http://www.redfin.com/OR/Portland/414-N-Rosa-Parks-Way-97217/home/26502963,RMLS,19163722,N,Y,45.5697467,-122.6705682
PAST SALE,June-1-2020,Single Family Residential,2036 N Wygant St,Portland,OR,97217,584500,3,2.0,Overlook,2608,4791,1913,80,224,,Sold,,,http://www.redfin.com/OR/Portland/2036-N-Wygant-St-97217/home/25772890,RMLS,20208546,N,Y,45.5574107,-122.6882551
PAST SALE,June-3-2020,Single Family Residential,5116 N Denver Ave,Portland,OR,97217,490000,2,1.0,Overlook,2349,5227,1905,78,209,,Sold,,,http://www.redfin.com/OR/Portland/5116-N-Denver-Ave-97217/home/26503075,RMLS,20476131,N,Y,45.5601495,-122.6871548
PAST SALE,April-16-2020,Single Family Residential,411 N Stafford St,Portland,OR,97217,550000,3,2.0,PIEDMONT,2786,5662,1938,126,197,,Sold,,,http://www.redfin.com/OR/Portland/411-N-Stafford-St-97217/home/25768030,RMLS,20474996,N,Y,45.5766673,-122.6702849
PAST SALE,April-24-2020,Single Family Residential,7235 N Greenwich Ave,Portland,OR,97217,410000,4,1.5,ARBOR LODGE,2275,4791,1929,118,180,,Sold,,,http://www.redfin.com/OR/Portland/7235-N-Greenwich-Ave-97217/home/26490627,RMLS,20240210,N,Y,45.5758437,-122.6835048
PAST SALE,May-7-2020,Single Family Residential,7006 N Haight Ave,Portland,OR,97217,410000,2,1.0,PIEDMONT,1374,4791,1946,105,298,,Sold,,,http://www.redfin.com/OR/Portland/7006-N-Haight-Ave-97217/home/26461617,RMLS,20569239,N,Y,45.57346,-122.6695085
PAST SALE,,Single Family Residential,1606 N Ainsworth St,Portland,OR,97217,516000,3,2.0,,1812,5100,1944,,285,,,,,http://www.redfin.com/OR/Portland/1606-N-Ainsworth-St-97217/home/26412320,,,N,Y,45.5661117,-122.6834445
PAST SALE,May-15-2020,Single Family Residential,6511 N Burrage Ave,Portland,OR,97217,570000,4,3.0,ARBOR LODGE,2130,4791,1924,97,268,,Sold,,,http://www.redfin.com/OR/Portland/6511-N-Burrage-Ave-97217/home/26479144,RMLS,20192869,N,Y,45.5702187,-122.6947542
PAST SALE,April-28-2020,Single Family Residential,2126 N Sumner St,Portland,OR,97217,460000,2,1.5,OVERLOOK,1404,4791,1945,114,328,,Sold,,,http://www.redfin.com/OR/Portland/2126-N-Sumner-St-97217/home/26668814,RMLS,20270081,N,Y,45.560358,-122.6891978
PAST SALE,March-5-2020,Single Family Residential,2347 N Terry St,Portland,OR,97217,295000,2,1.0,Kenton,790,1742,1910,168,373,,Sold,,,http://www.redfin.com/OR/Portland/2347-N-Terry-St-97217/home/26588917,RMLS,20442115,N,Y,45.5799799,-122.6911052
PAST SALE,February-26-2020,Single Family Residential,3614 N Alaska Pl,Portland,OR,97217,445000,3,2.0,Portland North,2016,6969,1968,176,221,,Sold,,,http://www.redfin.com/OR/Portland/3614-N-Alaska-Pl-97217/home/26398052,RMLS,19044212,N,Y,45.5876429,-122.7035572
PAST SALE,July-15-2020,Single Family Residential,1551 N Webster St,Portland,OR,97217,440000,2,1.0,OVERLOOK,972,4791,1925,36,453,,Sold,,,http://www.redfin.com/OR/Portland/1551-N-Webster-St-97217/home/26603331,RMLS,20183093,N,Y,45.5599979,-122.6834273
PAST SALE,April-30-2020,Single Family Residential,1645 N Willamette Blvd,Portland,OR,97217,436550,4,2.0,Portland North,2430,3920,1925,112,180,,Sold,,,http://www.redfin.com/OR/Portland/1645-N-Willamette-Blvd-97217/home/26512064,RMLS,20356129,N,Y,45.5621756,-122.6844292
PAST SALE,June-12-2020,Single Family Residential,5525 N Boston Ave,Portland,OR,97217,420000,3,1.0,Overlook,2080,4791,1947,69,202,,Sold,,,http://www.redfin.com/OR/Portland/5525-N-Boston-Ave-97217/home/26546621,RMLS,20306744,N,Y,45.5631675,-122.691757
PAST SALE,June-30-2020,Single Family Residential,6955 N Knowles Ave,Portland,OR,97217,507500,2,1.0,ARBOR LODGE,2070,4356,1922,51,245,,Sold,,,http://www.redfin.com/OR/Portland/6955-N-Knowles-Ave-97217/home/25800475,RMLS,20526073,N,Y,45.5731951,-122.699713
PAST SALE,July-24-2020,Single Family Residential,2015 N Webster St,Portland,OR,97217,455000,3,1.0,OVERLOOK,2137,4791,1926,27,213,,Sold,,,http://www.redfin.com/OR/Portland/2015-N-Webster-St-97217/home/25733609,RMLS,20081395,N,Y,45.5599688,-122.6878461
PAST SALE,July-17-2020,Single Family Residential,8111 N Washburne Ave,Portland,OR,97217,431000,3,1.0,KENTON,1570,2613,1942,34,275,,Sold,,,http://www.redfin.com/OR/Portland/8111-N-Washburne-Ave-97217/home/26604278,RMLS,20142880,N,Y,45.5821195,-122.7056321
PAST SALE,July-14-2020,Single Family Residential,2967 N Willamette Blvd,Portland,OR,97217,635000,3,2.0,OVERLOOK,1720,4791,1925,37,369,,Sold,,,http://www.redfin.com/OR/Portland/2967-N-Willamette-Blvd-97217/home/26575573,RMLS,20150334,N,Y,45.5647335,-122.6972304
PAST SALE,May-22-2020,Single Family Residential,1604 N Sumner St,Portland,OR,97217,475000,3,1.0,OVERLOOK,1820,5000,1929,90,261,,Sold,,,http://www.redfin.com/OR/Portland/1604-N-Sumner-St-97217/home/26529818,RMLS,20541231,N,Y,45.5603353,-122.6836449
PAST SALE,May-15-2020,Single Family Residential,928 N Holman St,Portland,OR,97217,535000,3,1.0,PIEDMONT,2480,6098,1932,97,216,,Sold,,,http://www.redfin.com/OR/Portland/928-N-Holman-St-97217/home/25793657,RMLS,20354337,N,Y,45.5682607,-122.6766149
PAST SALE,May-29-2020,Single Family Residential,6552 N Campbell Ave,Portland,OR,97217,465000,3,1.0,Portland North,2446,5662,1924,83,190,,Sold,,,http://www.redfin.com/OR/Portland/6552-N-Campbell-Ave-97217/home/26518166,RMLS,20552213,N,Y,45.5707626,-122.6860046
PAST SALE,,Single Family Residential,6524 N Campbell Ave,Portland,OR,97217,104600,3,1.0,,1510,5000,1930,,69,,,,,http://www.redfin.com/OR/Portland/6524-N-Campbell-Ave-97217/home/26337600,,,N,Y,45.5703712,-122.6860704
PAST SALE,May-29-2020,Single Family Residential,1550 N Webster St,Portland,OR,97217,525000,4,2.0,Portland North,1560,4791,1952,83,337,,Sold,,,http://www.redfin.com/OR/Portland/1550-N-Webster-St-97217/home/26592859,RMLS,20513353,N,Y,45.5596486,-122.6834583
PAST SALE,April-29-2020,Single Family Residential,5722 N Vancouver Ave,Portland,OR,97217,355000,2,1.0,HUMBOLDT,1900,3484,1940,113,187,,Sold,,,http://www.redfin.com/OR/Portland/5722-N-Vancouver-Ave-97217/home/26475167,RMLS,20666883,N,Y,45.5643357,-122.6684553
PAST SALE,,Single Family Residential,1654 N Emerson St,Portland,OR,97217,500000,4,1.0,,1344,5200,1927,,372,,,,,http://www.redfin.com/OR/Portland/1654-N-Emerson-St-97217/home/26642673,,,N,Y,45.5610468,-122.6846138
PAST SALE,April-15-2020,Single Family Residential,7535 N Fowler Ave,Portland,OR,97217,505000,3,1.5,Portland North,1990,4791,1923,127,254,,Sold,,,http://www.redfin.com/OR/Portland/7535-N-Fowler-Ave-97217/home/26510546,RMLS,20470072,N,Y,45.5777193,-122.7071585
PAST SALE,February-28-2020,Single Family Residential,9011 N Drummond Ave,Portland,OR,97217,375000,3,1.0,Portland North,816,4791,1955,174,460,,Sold,,,http://www.redfin.com/OR/Portland/9011-N-Drummond-Ave-97217/home/26639443,RMLS,20291325,N,Y,45.5881521,-122.6996619
PAST SALE,March-20-2020,Single Family Residential,6849 N Michigan Ave,Portland,OR,97217,425000,2,1.0,PIEDMONT,1248,4356,1924,153,341,,Sold,,,http://www.redfin.com/OR/Portland/6849-N-Michigan-Ave-97217/home/26617748,RMLS,20648420,N,Y,45.5725252,-122.6770444
PAST SALE,,Single Family Residential,7047 N Knowles Ave,Portland,OR,97217,290000,3,1.0,,1503,5450,1929,,193,,,,,http://www.redfin.com/OR/Portland/7047-N-Knowles-Ave-97217/home/26436950,,,N,Y,45.5743372,-122.6996165
PAST SALE,April-15-2020,Single Family Residential,6914 N Albina Ave,Portland,OR,97217,515000,3,2.0,PIEDMONT,2306,4356,1922,127,223,,Sold,,,http://www.redfin.com/OR/Portland/6914-N-Albina-Ave-97217/home/26580524,RMLS,20040436,N,Y,45.5728078,-122.674495
PAST SALE,April-3-2020,Single Family Residential,6605 N Wilbur Ave,Portland,OR,97217,517000,3,1.0,ARBOR LODGE,1972,4791,1912,139,262,,Sold,,,http://www.redfin.com/OR/Portland/6605-N-Wilbur-Ave-97217/home/25844023,RMLS,20324508,N,Y,45.5706613,-122.6937596
PAST SALE,,Single Family Residential,316 N Lombard St,Portland,OR,97217,160000,2,3.0,,1570,5000,1932,,102,,,,,http://www.redfin.com/OR/Portland/316-N-Lombard-St-97217/home/26533654,,,N,Y,45.5769645,-122.6697429
PAST SALE,April-27-2020,Single Family Residential,7244 N Chase Ave,Portland,OR,97217,749000,5,3.5,Portland North,3310,4791,1941,115,226,,Sold,,,http://www.redfin.com/OR/Portland/7244-N-Chase-Ave-97217/home/26319424,RMLS,20570107,N,Y,45.5758283,-122.7045873
PAST SALE,February-28-2020,Single Family Residential,6346 N Detroit Ave,Portland,OR,97217,469000,3,1.0,ARBOR LODGE,1930,4791,1919,174,243,,Sold,,,http://www.redfin.com/OR/Portland/6346-N-Detroit-Ave-97217/home/26321822,RMLS,20552609,N,Y,45.5689105,-122.6883153
PAST SALE,May-1-2020,Single Family Residential,626 N Skidmore St,Portland,OR,97217,735000,3,3.5,MISSISSIPPI ARTS,2564,2613,1907,111,287,,Sold,,,http://www.redfin.com/OR/Portland/626-N-Skidmore-St-97217/home/26489971,RMLS,20631433,N,Y,45.5544291,-122.6729272
PAST SALE,April-6-2020,Single Family Residential,7675 N Albina Ave,Portland,OR,97217,290000,2,2.0,PIEDMONT,1211,5662,1949,136,239,,Sold,,,http://www.redfin.com/OR/Portland/7675-N-Albina-Ave-97217/home/26482469,RMLS,20061075,N,Y,45.5790271,-122.6747326
PAST SALE,April-20-2020,Single Family Residential,8923 N Drummond Ave,Portland,OR,97217,379370,3,1.0,Portland North,1032,7405,1955,122,368,,Sold,,,http://www.redfin.com/OR/Portland/8923-N-Drummond-Ave-97217/home/26416241,RMLS,20187399,N,Y,45.5877427,-122.699687
PAST SALE,May-5-2020,Single Family Residential,811 N Watts St,Portland,OR,97217,383000,2,1.0,PIEDMONT,1558,4791,1939,107,246,,Sold,,,http://www.redfin.com/OR/Portland/811-N-Watts-St-97217/home/25823866,RMLS,20326024,N,Y,45.5815188,-122.674662
PAST SALE,March-30-2020,Single Family Residential,6943 N Campbell Ave,Portland,OR,97217,610000,5,3.0,ARBOR LODGE,2669,4791,1933,143,229,,Sold,,,http://www.redfin.com/OR/Portland/6943-N-Campbell-Ave-97217/home/25740474,RMLS,20193615,N,Y,45.5732252,-122.6865372
PAST SALE,April-10-2020,Single Family Residential,7124 N Montana Ave,Portland,OR,97217,525000,4,2.0,Portland North,2205,5662,1940,132,238,,Sold,,,http://www.redfin.com/OR/Portland/7124-N-Montana-Ave-97217/home/26671739,RMLS,20514555,N,Y,45.5748278,-122.6795195
PAST SALE,May-13-2020,Single Family Residential,108 N Farragut St,Portland,OR,97217,365000,3,1.0,PIEDMONT,1274,6098,1926,99,286,,Sold,,,http://www.redfin.com/OR/Portland/108-N-Farragut-St-97217/home/26507097,RMLS,20582505,N,Y,45.5791467,-122.6675883
PAST SALE,April-30-2020,Single Family Residential,7041 N Congress Ave,Portland,OR,97217,527400,3,2.0,Piedmont,2436,4356,1928,112,217,,Sold,,,http://www.redfin.com/OR/Portland/7041-N-Congress-Ave-97217/home/26558761,RMLS,20362835,N,Y,45.5740027,-122.6720511
PAST SALE,April-17-2020,Single Family Residential,5536 N Campbell Ave,Portland,OR,97217,287197,3,1.0,Portland North,1550,3920,1910,125,185,,Sold,,,http://www.redfin.com/OR/Portland/5536-N-Campbell-Ave-97217/home/26601654,RMLS,20215856,N,Y,45.5632605,-122.6861769
PAST SALE,March-10-2020,Single Family Residential,6940 N Montana Ave,Portland,OR,97217,499000,2,1.0,Portland North,1612,7405,1926,163,310,,Sold,,,http://www.redfin.com/OR/Portland/6942-N-Montana-Ave-97217/home/26552032,RMLS,19115534,N,Y,45.573291,-122.679459
PAST SALE,May-21-2020,Single Family Residential,6906 N Oatman Ave,Portland,OR,97217,685000,4,2.0,ARBOR LODGE,2653,5662,1941,91,258,,Sold,,,http://www.redfin.com/OR/Portland/6906-N-Oatman-Ave-97217/home/26482396,RMLS,20613946,N,Y,45.5724981,-122.7001857
PAST SALE,April-13-2020,Single Family Residential,8781 N Wilbur Ave,Portland,OR,97217,560000,4,2.5,Kenton,2121,4791,2020,129,264,,Sold,,,http://www.redfin.com/OR/Portland/8781-N-Wilbur-Ave-97217/home/26416154,RMLS,20242145,N,Y,45.5861613,-122.6944608
PAST SALE,August-14-2020,Single Family Residential,7409 N Knowles Ave,Portland,OR,97217,580000,4,3.0,ARBOR LODGE,3273,5662,1909,6,177,,Sold,,,http://www.redfin.com/OR/Portland/7409-N-Knowles-Ave-97217/home/26526067,RMLS,20224001,N,Y,45.5766313,-122.6996492
PAST SALE,August-18-2020,Single Family Residential,6235 N Atlantic Ave,Portland,OR,97217,755000,4,2.0,ARBOR LODGE,3478,7405,1922,2,217,,Sold,,,http://www.redfin.com/OR/Portland/6235-N-Atlantic-Ave-97217/home/25839500,RMLS,20210371,N,Y,45.5680556,-122.6968788
PAST SALE,March-11-2020,Single Family Residential,1518 N Webster St,Portland,OR,97217,509500,4,2.0,Portland North,2132,3484,1915,162,239,,Sold,,,http://www.redfin.com/OR/Portland/1518-N-Webster-St-97217/home/26455014,RMLS,20653241,N,Y,45.5596481,-122.6828186
PAST SALE,March-13-2020,Single Family Residential,1551 N Alberta St,Portland,OR,97217,506000,3,1.0,OVERLOOK,2409,4791,1922,160,210,,Sold,,,http://www.redfin.com/OR/Portland/1551-N-Alberta-St-97217/home/26525972,RMLS,20680758,N,Y,45.5593186,-122.683461
PAST SALE,March-5-2020,Single Family Residential,4933 N Haight Ave,Portland,OR,97217,315000,4,1.0,Portland North,2292,4791,1910,168,137,,Sold,,,http://www.redfin.com/OR/Portland/4933-N-Haight-Ave-97217/home/25862465,RMLS,19302093,N,Y,45.558806,-122.6703075
PAST SALE,,Single Family Residential,6006 N Haight Ave,Portland,OR,97217,455000,5,1.5,,2434,5000,1923,,187,,,,,http://www.redfin.com/OR/Portland/6006-N-Haight-Ave-97217/home/26325124,,,N,Y,45.566637,-122.6698098
PAST SALE,,Single Family Residential,6616 N Greeley Ave,Portland,OR,97217,350850,2,1.5,,1012,5000,1953,,347,,,,,http://www.redfin.com/OR/Portland/6616-N-Greeley-Ave-97217/home/25856026,,,N,Y,45.5707755,-122.6953272
PAST SALE,March-3-2020,Single Family Residential,9015 N Peninsular Ave,Portland,OR,97217,347000,3,1.0,KENTON,980,8276,1970,170,354,,Sold,,,http://www.redfin.com/OR/Portland/9015-N-Peninsular-Ave-97217/home/26493534,RMLS,19304169,N,Y,45.5880213,-122.6975038
PAST SALE,March-6-2020,Single Family Residential,7051 N Congress Ave,Portland,OR,97217,440000,2,1.0,PIEDMONT,1691,4356,1937,167,260,,Sold,,,http://www.redfin.com/OR/Portland/7051-N-Congress-Ave-97217/home/26586137,RMLS,20385939,N,Y,45.5741516,-122.6720999
PAST SALE,July-2-2020,Single Family Residential,1025 N Webster St,Portland,OR,97217,600000,5,3.0,HUMBOLDT,2347,4791,1947,49,256,,Sold,,,http://www.redfin.com/OR/Portland/1025-N-Webster-St-97217/home/26556211,RMLS,20567978,N,Y,45.5598864,-122.6775861
PAST SALE,February-26-2020,Single Family Residential,1712 N Church St,Portland,OR,97217,640000,3,3.0,Arbor Lodge - Overlook,2939,4356,1910,176,218,,Sold,,,http://www.redfin.com/OR/Portland/1712-N-Church-St-97217/home/26309065,RMLS,20667965,N,Y,45.563208,-122.6851863
PAST SALE,May-15-2020,Single Family Residential,6311 N Vancouver Ave,Portland,OR,97217,450000,2,1.0,Piedmont,1535,5227,1925,97,293,,Sold,,,http://www.redfin.com/OR/Portland/6311-N-Vancouver-Ave-97217/home/26548474,RMLS,20241547,N,Y,45.5680081,-122.66919
PAST SALE,June-1-2020,Single Family Residential,1860 N Bryant St,Portland,OR,97217,630000,3,2.0,ARBOR LODGE,3384,4791,1942,80,186,,Sold,,,http://www.redfin.com/OR/Portland/1860-N-Bryant-St-97217/home/25834449,RMLS,20244874,N,Y,45.5733736,-122.6859462
PAST SALE,July-30-2020,Single Family Residential,2114 N Wygant St,Portland,OR,97217,720000,3,2.0,OVERLOOK,1946,7405,1951,21,370,,Sold,,,http://www.redfin.com/OR/Portland/2114-N-Wygant-St-97217/home/26506806,RMLS,20114407,N,Y,45.5574241,-122.6889825
PAST SALE,August-14-2020,Single Family Residential,7665 N Mississippi Ave,Portland,OR,97217,442500,2,2.0,Lower Piedmont,1592,4791,1942,6,278,,Sold,,,http://www.redfin.com/OR/Portland/7665-N-Mississippi-Ave-97217/home/25741824,RMLS,20110941,N,Y,45.5788992,-122.6765752
PAST SALE,June-18-2020,Single Family Residential,1737 N Skidmore St,Portland,OR,97217,597000,3,3.0,OVERLOOK TRIANGLE,2777,4791,1941,63,215,,Sold,,,http://www.redfin.com/OR/Portland/1737-N-Skidmore-St-97217/home/26537670,RMLS,20067106,N,Y,45.5548507,-122.6861053
PAST SALE,May-8-2020,Single Family Residential,2206 N Saratoga St,Portland,OR,97217,425000,3,2.0,Portland North,1132,6969,1951,104,375,,Sold,,,http://www.redfin.com/OR/Portland/2206-N-Saratoga-St-97217/home/26300375,RMLS,20452351,N,Y,45.5724087,-122.6894672
PAST SALE,August-14-2020,Single Family Residential,5833 N Montana Ave,Portland,OR,97217,425000,2,1.0,Portland North,1020,5000,1910,6,417,,Sold,,,http://www.redfin.com/OR/Portland/5833-N-Montana-Ave-97217/home/26319594,RMLS,20026966,N,Y,45.5653555,-122.6804146
PAST SALE,August-14-2020,Single Family Residential,6414 N Vancouver Ave,Portland,OR,97217,470000,3,2.0,Piedmont,2117,5227,1925,6,222,,Sold,,,http://www.redfin.com/OR/Portland/6414-N-Vancouver-Ave-97217/home/26541336,RMLS,20549323,N,Y,45.5692531,-122.6685147
PAST SALE,March-27-2020,Single Family Residential,1552 N Alberta St,Portland,OR,97217,575000,3,2.0,Overlook,2014,4791,1942,146,286,,Sold,,,http://www.redfin.com/OR/Portland/1552-N-Alberta-St-97217/home/26327111,RMLS,20623430,N,Y,45.5589434,-122.6834765
